city_ascii,lat,lng,country
Kabul,34.5253,69.1783,Afghanistan
Aqchah,36.9114,66.1858,Afghanistan
Kandahar,31.62,65.7158,Afghanistan
Herat,34.3419,62.2031,Afghanistan
Farah,32.3436,62.1194,Afghanistan
Mazar-e Sharif,36.7,67.1167,Afghanistan
Lashkar Gah,31.5831,64.3692,Afghanistan
Kunduz,36.7286,68.8681,Afghanistan
Jalalabad,34.4342,70.4478,Afghanistan
Taluqan,36.7167,69.5167,Afghanistan
Shibirghan,36.665,65.752,Afghanistan
Zaranj,30.96,61.86,Afghanistan
Khost,33.3331,69.9169,Afghanistan
Maimanah,35.9333,64.75,Afghanistan
Mehtar Lam,34.6683,70.2089,Afghanistan
Ghazni,33.5492,68.4233,Afghanistan
Paghman,34.5833,68.95,Afghanistan
Pul-e Khumri,35.95,68.7,Afghanistan
Bamyan,34.825,67.8333,Afghanistan
Charikar,35.0131,69.1689,Afghanistan
Baghlan,36.1328,68.7,Afghanistan
Balkh,36.7581,66.8981,Afghanistan
Tarin Kot,32.6267,65.8733,Afghanistan
Gardez,33.6,69.2169,Afghanistan
Bazar-e Yakawlang,34.7333,66.9667,Afghanistan
Faizabad,37.1166,70.58,Afghanistan
Qal`ah-ye Now,34.9867,63.1292,Afghanistan
Ghoriyan,34.34,61.47,Afghanistan
Sar-e Pul,36.2214,65.9278,Afghanistan
Haskah Menah,34.1,70.4667,Afghanistan
Mahmud-e Raqi,35.0206,69.3306,Afghanistan
Qalat,32.1061,66.9069,Afghanistan
Andkhoy,36.95,65.1167,Afghanistan
Gudarah,34.8169,69.0878,Afghanistan
Aibak,36.2653,68.0167,Afghanistan
Kotah-ye `Ashro,34.4492,68.7939,Afghanistan
Maidan Shahr,34.3972,68.8697,Afghanistan
Bagrami,34.4911,69.2756,Afghanistan
Bala Koh,36.5753,66.8203,Afghanistan
Khulm,36.6833,67.6833,Afghanistan
Khanabad,36.6831,69.1636,Afghanistan
Hukumati Baghran,33.0669,65.0917,Afghanistan
Bazarak,35.3128,69.5158,Afghanistan
Sheghnan,37.6167,71.45,Afghanistan
Pul-e `Alam,33.9808,69.035,Afghanistan
Baraki Barak,33.9692,68.9447,Afghanistan
Sangin,32.0733,64.8339,Afghanistan
Qal`ah-ye Zal,37.015,68.4672,Afghanistan
Karukh,34.4922,62.5922,Afghanistan
Kushk,33.2956,61.9522,Afghanistan
Asadabad,34.8742,71.1528,Afghanistan
Qarqin,37.4128,66.0472,Afghanistan
Islam Qal`ah,34.6667,61.0667,Afghanistan
Zarah Sharan,33.13,68.78,Afghanistan
Fayroz Koh,34.5225,65.2517,Afghanistan
Taywarah,33.51,64.42,Afghanistan
Baraki,33.9333,68.9167,Afghanistan
Zarghun Shahr,32.85,68.4167,Afghanistan
Imam Sahib,37.1844,68.9144,Afghanistan
Kuhsan,34.65,61.1667,Afghanistan
Ishkashim,36.7092,71.5739,Afghanistan
Hukumati Gizab,33.3813,66.2655,Afghanistan
Urgun,32.9006,69.1569,Afghanistan
Tujg,32.0686,61.8058,Afghanistan
Panjab,34.3833,67.0167,Afghanistan
Mama Khel,34.25,70.01,Afghanistan
Deh-e Shu,30.4344,63.3183,Afghanistan
Chichkah,37.0706,69.2983,Afghanistan
Parun,35.4167,70.9169,Afghanistan
Sharan,33.1757,68.7304,Afghanistan
Nili,33.7218,66.1302,Afghanistan
Tirana,41.3272,19.8186,Albania
Durres,41.3133,19.4458,Albania
Vlore,40.45,19.4833,Albania
Kamez,41.3833,19.7667,Albania
Elbasan,41.1111,20.0806,Albania
Shkoder,42.0681,19.5119,Albania
Fier,40.7167,19.55,Albania
Korce,40.6167,20.7667,Albania
Sarande,39.877,20,Albania
Berat,40.7049,19.9497,Albania
Lushnje,40.9333,19.7,Albania
Pogradec,40.9,20.65,Albania
Kavaje,41.1842,19.5619,Albania
Gjirokaster,40.0758,20.1389,Albania
Fushe-Kruje,41.4833,19.7167,Albania
Lac,41.6353,19.7131,Albania
Sukth,41.3833,19.5333,Albania
Bucimas,40.8914,20.6814,Albania
Kukes,42.0833,20.4167,Albania
Lezhe,41.7819,19.6444,Albania
Patos,40.6841,19.6194,Albania
Peshkopi,41.6833,20.4281,Albania
Librazhd-Qender,41.1969,20.3356,Albania
Kucove,40.8039,19.9144,Albania
Kruje,41.5108,19.7925,Albania
Burrel,41.6083,20.0111,Albania
Perondi,40.7789,19.9231,Albania
Libonik,40.75,20.7167,Albania
Rreshen,41.7667,19.8833,Albania
Belsh,40.9833,19.8833,Albania
Gramsh,40.8667,20.1833,Albania
Librazhd,41.1833,20.3167,Albania
Permet,40.2333,20.35,Albania
Bajram Curri,42.3583,20.0761,Albania
Tepelene,40.2965,20.0186,Albania
Corovode,40.5042,20.2272,Albania
Erseke,40.3333,20.6833,Albania
Puke,42.05,19.9,Albania
Algiers,36.7325,3.0872,Algeria
Oran,35.6969,-0.6331,Algeria
Constantine,36.35,6.6,Algeria
Batna,35.55,6.1667,Algeria
Setif,36.19,5.41,Algeria
Annaba,36.9,7.7667,Algeria
Sidi Aissa,36.5,4.2978,Algeria
Sidi Bel Abbes,35.1939,-0.6414,Algeria
Biskra,34.85,5.7333,Algeria
Tebessa,35.4,8.1167,Algeria
Ouargla,31.95,5.3167,Algeria
El Khroub,36.2667,6.7,Algeria
Tiaret,35.3667,1.3167,Algeria
Bejaia,36.7511,5.0642,Algeria
Bir el Djir,35.7367,-0.5542,Algeria
Bordj Bou Arreridj,36.0667,4.7667,Algeria
Bechar,31.6167,-2.2167,Algeria
Skikda,36.8667,6.9,Algeria
Djelfa,34.6667,3.25,Algeria
Souk Ahras,36.2864,7.9511,Algeria
Chlef,36.1647,1.3317,Algeria
El Eulma,36.15,5.6833,Algeria
Bordj el Kiffan,36.7375,3.1931,Algeria
Mostaganem,35.9333,0.0833,Algeria
Touggourt,33.1,6.0667,Algeria
Medea,36.2675,2.75,Algeria
Tizi Ouzou,36.7167,4.05,Algeria
El Oued,33.3611,6.8606,Algeria
Laghouat,33.8028,2.875,Algeria
M'Sila,35.7019,4.5472,Algeria
Jijel,36.8167,5.75,Algeria
Relizane,35.7333,0.55,Algeria
Saida,34.8333,0.15,Algeria
Baraki,36.6667,3.1,Algeria
Guelma,36.45,7.4333,Algeria
Ghardaia,32.4833,3.6667,Algeria
Berrouaghia,36.1333,2.9167,Algeria
Ain Beida,35.7833,7.3833,Algeria
Maghnia,34.8617,-1.7306,Algeria
Bou Saada,36.7524,4.5833,Algeria
Mascara,35.4,0.1333,Algeria
Khenchela,35.4167,7.1333,Algeria
Barika,35.3972,5.3658,Algeria
Messaad,34.1667,3.5,Algeria
Aflou,34.1089,2.1019,Algeria
Ain Oussera,35.4489,2.9044,Algeria
Blida,36.4686,2.8319,Algeria
Es Senia,35.65,-0.6333,Algeria
Bab Ezzouar,36.7217,3.1853,Algeria
Tamanrasset,22.7889,5.5256,Algeria
Arzew,35.85,-0.3167,Algeria
Ain M'Lila,36.0361,6.5708,Algeria
Hassi Bahbah,35.0667,3.0333,Algeria
El Bayadh,33.6803,1.0203,Algeria
Mohammadia,35.5833,0.0667,Algeria
Khemis Miliana,36.2667,2.2167,Algeria
El Milia,36.75,6.2667,Algeria
Hamma Bouziane,36.5333,6.7167,Algeria
Chelghoum el Aid,36.1667,6.1667,Algeria
Dar el Beida,36.7142,3.2125,Algeria
Oum el Bouaghi,35.8775,7.1136,Algeria
Sougueur,35.1833,1.5,Algeria
Taher,36.7719,5.8983,Algeria
Birkhadem,36.7167,3.05,Algeria
Bir el Ater,34.7497,8.0578,Algeria
Khemis el Khechna,36.65,3.3306,Algeria
Merouana,35.6333,5.9167,Algeria
Ain Temouchent,35.3,-1.1333,Algeria
Cheria,35.2667,7.75,Algeria
Tissemsilt,35.6078,1.8111,Algeria
Ain Oulmene,35.9167,5.3,Algeria
Tlemcen,34.8828,-1.3167,Algeria
Sig,35.5278,-0.1861,Algeria
Mila,36.4503,6.2644,Algeria
Bouira,36.38,3.9014,Algeria
Adrar,27.8667,-0.2833,Algeria
Ksar el Boukhari,35.8856,2.7508,Algeria
Reghaia,36.7631,3.3426,Algeria
Ain Defla,36.2652,1.9703,Algeria
Hadjout,36.5167,2.4167,Algeria
Mecheria,33.55,-0.2833,Algeria
Bordj Menaiel,36.7417,3.7231,Algeria
Oued Rhiou,35.9667,0.9167,Algeria
Assi Bou Nif,35.7,-0.5,Algeria
Ouled Djellal,34.4167,5.0667,Algeria
Tighenif,35.4167,0.3333,Algeria
Rouiba,36.7333,3.2833,Algeria
Kolea,36.6406,2.765,Algeria
Baba Hassen,36.7,2.9667,Algeria
Meskiana,35.6333,7.6667,Algeria
Ain Touta,35.3833,5.9,Algeria
Lakhdaria,36.5622,3.5944,Algeria
Sidi ech Chahmi,35.6667,-0.5167,Algeria
Rouissat,31.9167,5.35,Algeria
El Attaf,36.2167,1.6667,Algeria
Boufarik,36.5706,2.9108,Algeria
Azzaba,36.7333,7.1,Algeria
Chekfa,36.7667,5.9667,Algeria
Boudouaou,36.73,3.41,Algeria
Oulad Yaich,36.5039,2.8619,Algeria
Morsott,35.6667,8.0167,Algeria
Frenda,35.0667,1.05,Algeria
Ksar Chellala,35.2167,2.3167,Algeria
Ouenza,35.95,8.1333,Algeria
Ain Sefra,32.75,-0.5833,Algeria
Akbou,36.4667,4.5333,Algeria
Zeralda,36.7167,2.85,Algeria
Ras el Oued,35.9497,5.0358,Algeria
Boukadir,36.0667,1.1333,Algeria
'Ain Merane,36.1628,0.9706,Algeria
Tamalous,36.8361,6.6417,Algeria
Djamaa,33.5333,6,Algeria
Sour el Ghozlane,36.1472,3.6906,Algeria
Saoula,36.7,3.0167,Algeria
'Ain el Turk,35.7408,-0.7492,Algeria
El Meghaier,33.9506,5.9242,Algeria
Fouka,36.6667,2.75,Algeria
Telerghma,36.1167,6.3667,Algeria
Ain Fakroun,35.9667,6.8667,Algeria
'Ain Azel,35.8433,5.5219,Algeria
Chetouane,34.9203,-1.2897,Algeria
Oued Sly,36.1,1.2,Algeria
Douera,36.6667,2.95,Algeria
Ouled Moussa,36.6831,3.3681,Algeria
Tindouf,27.6753,-8.1286,Algeria
Hassi Messaoud,31.7,6.0667,Algeria
Miliana,36.3,2.2333,Algeria
Beni Saf,35.3,-1.3833,Algeria
'Ain Arnat,36.1833,5.3167,Algeria
El Affroun,36.4667,2.6333,Algeria
Tadjenanet,36.1167,5.9833,Algeria
Oued Fodda,36.1833,1.5333,Algeria
Boumerdes,36.7603,3.4724,Algeria
Meftah,36.6167,3.2333,Algeria
Sidi Moussa,36.6056,3.0886,Algeria
Metlili Chaamba,32.2728,3.6275,Algeria
Reguiba,33.5667,6.7167,Algeria
El Golea,30.5833,2.8833,Algeria
Sebdou,34.6333,-1.3333,Algeria
'Ain el Melh,34.8483,4.1611,Algeria
Magra,35.6,5.0667,Algeria
Guemar,33.5,6.8333,Algeria
Sidi Khaled,34.3833,4.9833,Algeria
Staoueli,36.75,2.8833,Algeria
Draa el Mizan,36.5333,3.8333,Algeria
Ain Tedeles,35.9947,0.2956,Algeria
Emir Abdelkader,36.75,5.8333,Algeria
Bougara,36.5333,3.0833,Algeria
Drean,36.6833,7.75,Algeria
Souma,36.5183,2.9053,Algeria
Sidi Ali,36.1047,0.4233,Algeria
Ouled Beni Messous,36.7833,2.9833,Algeria
Oued Athmenia,36.2497,6.2861,Algeria
Collo,37.0056,6.5603,Algeria
Tenes,36.5122,1.3044,Algeria
Bou Noura,32.4825,3.7036,Algeria
Hammam Bou Hadjar,35.3792,-0.9706,Algeria
Kherrata,36.5,5.2833,Algeria
Tebesbest,33.1167,6.0833,Algeria
Ouled Fares,36.2667,1.1833,Algeria
Hammam Dalaa,35.9281,4.3744,Algeria
Azazga,36.7453,4.3711,Algeria
Sidi Lakhdar,36.1428,0.4606,Algeria
Ain Taya,36.7917,3.2889,Algeria
Cherchell,36.6075,2.19,Algeria
Takhemaret,35.1072,0.6833,Algeria
Oued el Alleug,36.55,2.7833,Algeria
Selmane,35.6833,4.7833,Algeria
Beni Tamou,36.5333,2.8167,Algeria
Beni Slimane,36.227,3.306,Algeria
Ghazaouet,35.1,-1.85,Algeria
Sidi Okba,34.75,5.9,Algeria
Didouche Mourad,36.45,6.6333,Algeria
El Arrouch,36.6531,6.8364,Algeria
Timimoun,29.2628,-0.2389,Algeria
`Ain el Hadjel,35.6739,3.8817,Algeria
Dellys,36.9133,3.9141,Algeria
Oued Zenati,36.3167,7.1667,Algeria
Ain el Bya,35.8167,-0.2833,Algeria
Arris,35.25,6.35,Algeria
Isser,36.716,3.666,Algeria
Ain Bessem,36.2967,3.67,Algeria
Ain Smara,36.2664,6.4967,Algeria
I-n-Salah,27.195,2.4833,Algeria
Nedroma,35,-1.7333,Algeria
Terga,35.4167,-1.1833,Algeria
El Abiodh Sidi Cheikh,32.8986,0.5444,Algeria
Bougaa,36.3333,5.0833,Algeria
Remchi,35.0667,-1.4333,Algeria
Hassi Khelifa,33.5622,6.9903,Algeria
'Ain Abid,36.2325,6.944,Algeria
Draa Ben Khedda,36.7333,3.9667,Algeria
Boghni,36.55,3.95,Algeria
Birtouta,36.65,3,Algeria
Ain Kercha,35.9167,6.7,Algeria
Chabet el Ameur,36.6333,3.7,Algeria
Berriane,32.8333,3.7667,Algeria
Djendel,36.2186,2.4089,Algeria
Zemoura,35.7167,0.75,Algeria
El Idrissia,34.45,2.5333,Algeria
El Kseur,36.6844,4.8522,Algeria
N'Gaous,35.555,5.6106,Algeria
Tizi Gheniff,36.5833,3.7667,Algeria
L'Arbaa Nait Irathen,36.6367,4.2067,Algeria
Sendjas,36.0667,1.4,Algeria
Ouled Haddaj,36.72,3.35,Algeria
Ahmer el 'Ain,36.4781,2.5639,Algeria
Timizart,36.8,4.2667,Algeria
Ammi Moussa,35.8667,1.1167,Algeria
Tazmalt,36.3844,4.3992,Algeria
Zighout Youcef,36.5333,6.7167,Algeria
Kais,35.4947,6.9242,Algeria
Sabra,34.8333,-1.5333,Algeria
Mouzaia,36.4667,2.6833,Algeria
Ouled Ben Abd el Kader,36.0258,1.2764,Algeria
Sidi Lakhdar,36.2653,2.1617,Algeria
Tablat,36.4167,3.3167,Algeria
Babar,35.1692,7.1013,Algeria
Sfizef,35.2333,-0.25,Algeria
Bordj el Bahri,36.8167,3.2333,Algeria
Theniet el Had,35.8708,2.0289,Algeria
Ouled Fayet,36.7333,2.95,Algeria
Taougrite,36.25,0.9167,Algeria
Ouled Slama Tahta,36.5483,3.11,Algeria
Tazoult-Lambese,35.49,6.26,Algeria
El Abadia,36.2667,1.6833,Algeria
Barbacha,36.5667,4.9667,Algeria
Bouguirat,35.7508,0.2556,Algeria
Feidh el Botma,34.5278,3.7819,Algeria
Birine,35.6333,3.2167,Algeria
Dar Chioukh,34.9,3.4833,Algeria
Sidi Akkacha,36.4667,1.3,Algeria
Zeboudja,36.35,1.4333,Algeria
Hennaya,34.95,-1.3667,Algeria
Zemmouri,36.7833,3.6,Algeria
Ouled Mimoun,34.9,-1.0333,Algeria
Kaous,36.7702,5.8136,Algeria
Ouled Rahmoun,36.1803,6.705,Algeria
Misserghin,35.6167,-0.7333,Algeria
Chellalat el Adhaouara,35.9403,3.4139,Algeria
El Hadjar,36.8,7.7333,Algeria
Foughala,34.7167,5.3167,Algeria
El Tarf,36.767,8.317,Algeria
Menaceur,36.492,2.2208,Algeria
Rouached,36.4583,6.0397,Algeria
Tipasa,36.5919,2.4494,Algeria
Debila,33.5064,6.9381,Algeria
El Karimia,36.1167,1.55,Algeria
Illiltene,36.5161,4.3944,Algeria
Telagh,34.7833,-0.5667,Algeria
Ain Kechera,36.7483,6.4325,Algeria
'Ain Boucif,35.8912,3.1585,Algeria
Tadjmout,33.8667,2.5167,Algeria
Mekla,36.6833,4.2667,Algeria
Freha,36.75,4.3167,Algeria
Douar Bou Tlelis,35.573,-0.9,Algeria
Ksar el Hirane,33.7833,3.15,Algeria
Beni Amrane,36.6667,3.5833,Algeria
Berhoum,35.65,5.0333,Algeria
Khelil,36.1756,5.0292,Algeria
Oued el Djemaa,35.7972,0.6814,Algeria
Beni Rached,36.2806,1.5161,Algeria
Makouda,36.7833,4.0667,Algeria
Bordj Ghdir,35.9,4.89,Algeria
Tadmait,36.75,3.9,Algeria
Amoucha,36.3833,5.4167,Algeria
Bouzeghaia,36.3333,1.25,Algeria
El Amria,35.5333,-1.0167,Algeria
Naciria,36.75,3.8333,Algeria
Mechta Ouled Oulha,35.6706,4.8778,Algeria
Kadiria,36.5333,3.6833,Algeria
Had Sahary,35.3517,3.3608,Algeria
Souahlia,35.0333,-1.8833,Algeria
Kheiredine,35.9806,0.1681,Algeria
Ghriss,35.25,0.1667,Algeria
Bourkika,36.5,2.4833,Algeria
Djinet,36.8833,3.7167,Algeria
Robbah,33.2811,6.9108,Algeria
Sayada,35.95,0.1333,Algeria
Hassi Maameche,35.8611,0.725,Algeria
Sidi Amrane,33.5,6.0167,Algeria
Sirat,35.78,0.1919,Algeria
M'Chedallah,36.3667,4.2667,Algeria
Beni Douala,36.6167,4.0833,Algeria
Chebli,36.5778,3.0083,Algeria
Beni Mered,36.5233,2.8617,Algeria
Thenia,36.7278,3.5539,Algeria
Lioua,34.6375,5.3958,Algeria
Oum Drou,36.2,1.3833,Algeria
Mansourah,36.0819,4.46,Algeria
Oued el Aneb,36.8833,7.4833,Algeria
Tizi-n-Bechar,36.4311,5.36,Algeria
Sidi Lahssen,35.1633,-0.6958,Algeria
Bordj Bounaama,35.85,1.6167,Algeria
Beni Haoua,36.5333,1.5667,Algeria
El Hammadia,35.9833,4.75,Algeria
Sour,36.0006,0.3414,Algeria
Aomar,36.5,3.7667,Algeria
'Ain el Bell,34.35,3.2167,Algeria
Reggane,26.7203,0.1728,Algeria
'Ain el Hammam,36.5714,4.3097,Algeria
Tala Yfassene,36.4583,5.0889,Algeria
Taibet,33.0833,6.3833,Algeria
Abou el Hassan,36.4167,1.2,Algeria
El Ancer,36.8,6.1667,Algeria
Temacine,33.0219,6.0228,Algeria
Mesra,35.8333,0.1667,Algeria
Sidi Merouane,36.5333,1.3333,Algeria
'Ain Mabed,34.8,3.1333,Algeria
Merad,36.4667,2.4333,Algeria
Rechaiga,35.4081,1.9733,Algeria
Bir Kasdali,36.15,5.0333,Algeria
Arbaoun,36.4667,5.65,Algeria
Charef,34.6167,2.8,Algeria
Arbatache,36.6361,3.3708,Algeria
Oued el Abtal,35.45,0.6833,Algeria
Tirmitine,36.6618,3.9848,Algeria
El Malah,35.3883,-1.0944,Algeria
Zahana,35.5167,-0.4167,Algeria
Ben 'Aknoun,36.75,3,Algeria
Ras el Ma,34.4974,-0.8195,Algeria
Medjedel,35.15,3.6833,Algeria
Timoktene,27.0217,1.015,Algeria
Bougtob,34.0425,0.0892,Algeria
Bettioua,35.8,-0.2667,Algeria
El Achir,36.0667,4.6333,Algeria
Maoussa,35.3833,0.25,Algeria
Ben Daoud,35.7192,0.5203,Algeria
El Bordj,35.5158,0.3017,Algeria
Sidi Kada,35.3333,0.35,Algeria
Herenfa,36.2453,1.0458,Algeria
Beni Fouda,36.2861,5.6072,Algeria
El Omaria,36.2667,3.0333,Algeria
Fornaka,35.7517,-0.0161,Algeria
Sigus,36.1167,6.7833,Algeria
Oued el Kheir,35.9503,0.3808,Algeria
Ain Zaouia,36.55,3.8944,Algeria
El Kouif,35.5,8.3167,Algeria
Illizi,26.505,8.4822,Algeria
Souaflia,35.85,0.3333,Algeria
Tizi Rached,36.6667,4.1833,Algeria
Damous,36.55,1.7,Algeria
Bou Hanifia el Hamamat,35.3167,-0.05,Algeria
Mers el Kebir,35.7286,-0.7069,Algeria
Sidi Daoud,36.85,3.85,Algeria
Ighram,36.4667,4.5167,Algeria
Azeffoun,36.9,4.4167,Algeria
Ain Feka,35.4333,3.5833,Algeria
'Ain Abessa,36.3,5.295,Algeria
Djouab,36.1333,3.4333,Algeria
N'Goussa,32.1408,5.3083,Algeria
Tichi,36.6667,5.1667,Algeria
Bou Hadjar,36.5031,8.1053,Algeria
Ouled Chebel,36.6,3,Algeria
Berriche,35.9167,7.3833,Algeria
Naama,33.2622,-0.3144,Algeria
Chorfa,36.3617,4.3308,Algeria
'Ain Babouche,35.9411,7.1856,Algeria
Medjana,36.1333,4.6667,Algeria
El Ach,35.95,4.6833,Algeria
Mecheraa Asfa,35.3839,1.0533,Algeria
Ouamri,36.2333,2.5667,Algeria
Baghlia,36.8167,3.85,Algeria
Hammam M'Bails,36.3258,7.6436,Algeria
Hadjadj,36.1,0.3333,Algeria
Ouadhia,36.55,4.0833,Algeria
Boudjima,36.8,4.15,Algeria
Mouiat Ouennsa,33.1969,6.7053,Algeria
Souagui,36.1167,3.2333,Algeria
Ebn Ziad,36.3833,6.4667,Algeria
Ain el Hadid,35.0581,0.8833,Algeria
Tizi-n-Tleta,36.5457,4.0571,Algeria
Guerouma,36.4833,3.4333,Algeria
Medrissa,34.9,1.2333,Algeria
Sidi Ghiles,36.5833,2.1167,Algeria
Chemini,36.6,4.6167,Algeria
Boumahra Ahmed,36.45,7.5167,Algeria
Es Sebt,36.6624,7.0774,Algeria
Melouza,35.9808,4.1861,Algeria
Mazagran,35.9019,0.7269,Algeria
Belkheir,36.4667,7.4833,Algeria
Bouchegouf,36.4667,7.4833,Algeria
Texenna,36.65,5.7833,Algeria
El Hadjira,32.6167,5.5167,Algeria
Tsabit,28.3503,-0.2208,Algeria
Harchoune,36.1139,1.5056,Algeria
Oulad Dahmane,36.3667,3.4667,Algeria
El Ateuf,32.4775,3.7478,Algeria
Labiod Medjadja,36.25,1.4,Algeria
Chaabat el Leham,35.3361,-1.1011,Algeria
Bellaa,36.2,5.85,Algeria
Djanet,24.555,9.4853,Algeria
Djebahia,36.4764,3.7578,Algeria
Benfreha,35.6933,-0.4192,Algeria
Adekar Kebouche,36.6833,4.6667,Algeria
Blidet Amor,32.9514,5.9806,Algeria
Zaouiet Kounta,27.2167,-0.2,Algeria
Ain Nouissy,35.8,0.05,Algeria
Ouled Sidi Brahim,36.3667,3.7167,Algeria
Ahmed Rachedi,36.4,6.1167,Algeria
Ait Yaich,36.5811,4.3303,Algeria
Iflissen,36.8636,4.2203,Algeria
Mnagueur,33.1264,6.3519,Algeria
Mers el Hadjad,35.7833,-0.1667,Algeria
Bougzoul,35.6997,2.8478,Algeria
Sidi Ben Adda,35.3,-1.1833,Algeria
Moudjbara,34.5037,3.4704,Algeria
Khadra,36.25,0.5667,Algeria
Selmana,34.1833,3.6,Algeria
Takerbouzt,36.418,4.3428,Algeria
Tarhzout,33.4833,6.75,Algeria
Oued Taria,35.1167,0.0833,Algeria
Tidjelabine,36.7333,3.5,Algeria
Megarine,33.1944,6.0944,Algeria
Settara,36.7167,6.3333,Algeria
El Kerma,35.6167,-0.5667,Algeria
Abadla,31.0167,-2.7333,Algeria
Menaa,35.1667,6,Algeria
Kenadsa,31.5333,-2.4167,Algeria
El Hachimia,36.2333,3.8333,Algeria
Bou Sfer,35.7108,-0.8106,Algeria
Chahbounia,35.55,2.6,Algeria
Bouzina,35.2833,6.1167,Algeria
Sidi Abd el Moumene,35.6528,0.0139,Algeria
Bouskene,36.1833,3.2333,Algeria
Oued Tlelat,35.55,-0.45,Algeria
Ain Youcef,35.05,-1.3667,Algeria
Afir,36.7676,3.7029,Algeria
El Esnam,36.3211,4.0139,Algeria
Benairia,36.35,1.3833,Algeria
Ain Lechiakh,36.1569,2.4042,Algeria
'Ain Mouilah,34.75,3.4833,Algeria
Sali,25.9606,-0.0275,Algeria
Bensekrane,35.0667,-1.2167,Algeria
Debbache el Hadj Douadi,36.275,6.1764,Algeria
Mechtras,36.55,4,Algeria
Nakhla,33.2833,6.95,Algeria
Ouzera,36.25,2.85,Algeria
Ziama Mansouria,36.6667,5.4833,Algeria
Gueltat Sidi Saad,34.3,1.95,Algeria
El Adjiba,36.3333,4.15,Algeria
'Ain el Assel,36.7864,8.3825,Algeria
Arhribs,36.8022,4.3228,Algeria
Iferhounene,36.5167,4.3833,Algeria
'Ain el Arbaa,35.4075,-0.8817,Algeria
El Aouana,36.7667,5.6,Algeria
Sidi Makhlouf,34.1333,3.0167,Algeria
Sidi Aoun,33.5422,6.905,Algeria
Hassi Fedoul,35.4333,2.2167,Algeria
Yakouren,36.7333,4.45,Algeria
'Ain Kerma,36.5939,8.2011,Algeria
Hassi el Ghella,35.45,-1.05,Algeria
El Marsa,36.8111,3.2556,Algeria
Si Mustapha,36.7247,3.6153,Algeria
Froha,35.3,0.1333,Algeria
Stidia,35.8333,-0.3,Algeria
Tigzirt,36.9,4.1167,Algeria
Oued Cheham,36.3833,7.7667,Algeria
Oued Seguin,36.171,6.42,Algeria
Aougrout,28.7,0.3167,Algeria
Sidi Ladjel,35.4333,2.5,Algeria
Bechloul,36.3167,4.0667,Algeria
Tafaraoui,35.4833,-0.5167,Algeria
'Ain Roua,36.3344,5.1806,Algeria
El Ancor,35.6833,-0.8667,Algeria
Dhalaa,35.4611,7.5472,Algeria
Medroussa,35.1667,1.2,Algeria
Sidi Baizid,35.75,2.3833,Algeria
Charouine,29.0186,-0.2578,Algeria
Teniet el Abed,35.2469,6.1906,Algeria
Djemmorah,35.0667,5.8333,Algeria
Beni Ounif,32.05,-1.25,Algeria
'Ain Tolba,35.2483,-1.2489,Algeria
Galbois,36.2,4.49,Algeria
'Ain Taghrout,36.1289,5.0767,Algeria
Ksar Sbahi,36.0833,7.25,Algeria
El Hamel,35.1333,4.0833,Algeria
Bir Ghbalou,36.2642,3.5836,Algeria
Tizi,35.3167,0.0667,Algeria
Oued Sebbah,35.3725,-0.8114,Algeria
Beni Abbes,30.08,-2.1,Algeria
Bouchagroun,34.7217,5.4656,Algeria
Bou Khadra,35.7444,8.0325,Algeria
Sidi Namane,36.7581,3.9839,Algeria
Asfour,36.6667,7.9833,Algeria
Bouhmama,35.2833,6.7333,Algeria
'Ain Fekan,35.225,-0.0017,Algeria
Bir Ben Laabed,36.2175,3.4267,Algeria
Rabta,35.9167,4.75,Algeria
Boudouaou el Bahri,36.7733,3.3872,Algeria
Bordj Okhriss,36.0833,3.9667,Algeria
Sidi Brahim,35.2606,-0.5675,Algeria
Ben Nasseur,33.1108,6.4411,Algeria
Bel Imour,35.9806,4.8797,Algeria
Bordj Zemoura,36.2667,4.85,Algeria
'Ain Tellout,34.9167,-0.9667,Algeria
Sidi Embarek,36.1039,4.9119,Algeria
Jean-Mermoz,35.5606,-0.0844,Algeria
Benyahia Abderrahmane,36.2333,6.0167,Algeria
Akabli,26.7086,1.3689,Algeria
Zelfana,32.3969,4.2261,Algeria
Sidi Abdelaziz,36.85,6.05,Algeria
Ouled Rabah,36.2833,3.1333,Algeria
Oggaz,35.5667,-0.2667,Algeria
M'Chouneche,34.95,6,Algeria
Zerizer,36.7272,7.8947,Algeria
Kouinine,33.4,6.8333,Algeria
'Ain Naga,34.6883,6.0886,Algeria
Ben N'Choud,36.8622,3.8806,Algeria
Fenoughil,27.6028,-0.3056,Algeria
Souama,36.6417,4.3417,Algeria
Tamzoura,35.4167,-0.65,Algeria
Bekkaria,35.3722,8.2422,Algeria
Boufatis,35.6833,-0.4167,Algeria
Ouled Brahim,36.2444,2.9336,Algeria
Toudja,36.75,4.9,Algeria
Bou Nouh,36.5,3.9333,Algeria
Tixter,36.05,5.0833,Algeria
Tamentit,27.7672,-0.2678,Algeria
Negrine,34.4833,7.5167,Algeria
Tarmount,35.8167,4.2833,Algeria
Assi-Ben Okba,35.7294,-0.4658,Algeria
Tassera,36.0369,5.0022,Algeria
Bordj Mokhtar,21.3289,0.9542,Algeria
Lac des Oiseaux,36.7833,8.1167,Algeria
Oued Essalem,35.5833,0.9167,Algeria
Ouled Rached,36.2119,4.1106,Algeria
Ain el Hadjar,36.3333,3.8,Algeria
Zoubiria,36.0667,2.9,Algeria
I-n-Amenas,28.0408,9.5431,Algeria
Tenedla,33.6753,6.0339,Algeria
Hacine,35.4569,-0.0025,Algeria
Abalessa,22.89,4.8472,Algeria
Ifigha,36.6667,4.4167,Algeria
Nechmeya,36.6114,7.5133,Algeria
Ksar Belezma,35.6756,5.9033,Algeria
Ouled Rahou,36.0069,0.5919,Algeria
Ben Chicao,36.1997,2.8486,Algeria
Seddouk Oufella,36.6061,4.6389,Algeria
Bouati Mahmoud,36.5833,7.3333,Algeria
El Outaya,35.0333,5.6,Algeria
Chahana,36.6794,5.9572,Algeria
Boukhralfa,36.6144,5.0872,Algeria
Lichana,34.7247,5.4325,Algeria
Chetma,34.85,5.8167,Algeria
Bouaiche,35.5528,2.3586,Algeria
Amalou,36.4778,4.6333,Algeria
El Ghomri,35.6833,0.2,Algeria
Tamza,35.3167,6.8333,Algeria
Ouled Abbes,36.2167,1.4833,Algeria
Tifra,36.6667,4.7,Algeria
In Guezzam,19.5686,5.7722,Algeria
I-n-Amguel,23.6936,5.1647,Algeria
Pago Pago,-14.274,-170.7046,American Samoa
Andorra la Vella,42.5,1.5,Andorra
Sant Pere,42.5,1.5,Andorra
Escaldes-Engordany,42.5089,1.5408,Andorra
Encamp,42.5361,1.5828,Andorra
La Massana,42.5444,1.5144,Andorra
Sant Julia de Loria,42.465,1.4911,Andorra
Canillo,42.5667,1.6,Andorra
Ordino,42.555,1.5331,Andorra
Luanda,-8.8383,13.2344,Angola
Cacuaco,-8.8053,13.2444,Angola
Cazenga,-8.8214,13.2911,Angola
Lubango,-14.9167,13.5,Angola
Cabinda,-5.56,12.19,Angola
Huambo,-12.7767,15.7347,Angola
Malanje,-9.5333,16.35,Angola
Benguela,-12.55,13.4167,Angola
Cuito,-12.3833,16.9333,Angola
Belas,-8.9983,13.265,Angola
Talatona,-8.9167,13.1833,Angola
Lobito,-12.35,13.5464,Angola
Saurimo,-9.65,20.4,Angola
Cubal,-13.0333,14.25,Angola
Luena,-11.7918,19.9062,Angola
Uige,-7.6167,15.05,Angola
Menongue,-14.6556,17.6842,Angola
Vila Teixeira da Silva,-12.1958,15.8556,Angola
Sumbe,-11.2053,13.8417,Angola
Caala,-12.85,15.55,Angola
Gabela,-10.85,14.3667,Angola
Matala,-14.7306,15.0367,Angola
Ndulo,-11.4833,15.8333,Angola
Andulo,-11.4926,16.7035,Angola
Mocamedes,-15.1953,12.1508,Angola
Ganda,-13.0167,14.6333,Angola
Uacu Cungo,-11.3583,15.1194,Angola
Barra do Dande,-8.4728,13.3731,Angola
Soio,-6.1333,12.3667,Angola
Tchitato,-7.3667,20.8333,Angola
Chibia,-15.1833,13.7,Angola
Ucu Seles,-11.4047,14.3006,Angola
Cuango,-9.1444,18.0464,Angola
Mbanza Kongo,-6.2678,14.2481,Angola
Caluquembe,-13.7833,14.6833,Angola
Dundo,-7.3801,20.8351,Angola
Catumbela,-12.4339,13.5433,Angola
Cazanga,-9.3,14.95,Angola
Caluquembe,-13.7833,14.6833,Angola
Catape,-13.7667,15.0833,Angola
Caconda,-13.7393,15.0607,Angola
Ebo,-11,14.6667,Angola
Bocoio,-12.45,14.15,Angola
Quibala,-10.7333,14.9833,Angola
Ndalatando,-9.3,14.9167,Angola
Quipungo,-14.8167,14.55,Angola
Lucapa,-8.4228,20.7392,Angola
Maquela do Zombo,-6.05,15.1167,Angola
Namacunde,-17.3,15.85,Angola
Negage,-7.7667,15.2667,Angola
Porto Amboim,-10.7183,13.75,Angola
Cacula,14,29,Angola
Quimbele,-6.5167,16.2167,Angola
Londuimbali,-12.2419,15.3133,Angola
Chicomba,-14.1333,14.9167,Angola
Chinguar,-12.55,16.3333,Angola
Catabola,-12.1167,17.3,Angola
Ondjiva,-17.0667,15.7333,Angola
Catchiungo,-12.5667,16.2333,Angola
Cassongue,-11.8333,15,Angola
Quilengues,-14.0814,14.0931,Angola
Mungo,-11.6667,16.1667,Angola
Balombo,-12.35,14.7667,Angola
Baia Farta,-12.6072,13.1944,Angola
Ndjamba,-14.7,16.0667,Angola
Calandala,-9.0894,15.955,Angola
Quilenda,-10.6333,14.3333,Angola
Caimbambo,-12.9,14.0833,Angola
Cambambe,-9.7586,14.5122,Angola
Luau,-10.7044,22.2283,Angola
Conda,-11.1667,14.5,Angola
Humpata,-15,13.3333,Angola
Chongoroi,-13.5667,13.95,Angola
Longonjo,-12.9067,15.1864,Angola
Mussende,-10.5103,16.0107,Angola
Chibemba,15,46,Angola
Kuvango,-14.4667,16.3,Angola
Chitembo,-13.5138,16.7541,Angola
Chitemo,-13.5167,16.7667,Angola
Caxito,-8.58,13.6642,Angola
Cunhinga,-12.2333,16.7833,Angola
Dondo,-9.6942,14.4228,Angola
Xangongo,-16.7467,14.9747,Angola
Cahama,-16.2833,14.3167,Angola
Cuimba,-6.1178,14.6172,Angola
Sanza Pombo,-7.3333,16,Angola
Xa Muteba,-9.5167,17.8167,Angola
Damba,-6.8833,15.0167,Angola
Chipindo,-13.8244,15.8,Angola
Camabatela,-8.1833,15.3667,Angola
Sungo,-11.2333,14.3167,Angola
Nambuangongo,-8.0167,14.2,Angola
Calulo,-10.0007,14.901,Angola
Camacupa,-12.0256,17.4686,Angola
Cambundi Catembo,-10.0756,17.5569,Angola
Capenda Camulemba,-9.4233,18.4328,Angola
Cuvelai,-15.6667,15.8,Angola
Nova Esperanca,-6.7333,15.9,Angola
Cuemba,-12.15,18.0833,Angola
PortoAlexandre,-15.8,11.85,Angola
Ucuma,-12.85,15.0667,Angola
Luquembo,-10.7333,17.8833,Angola
Cangola,-7.9667,15.8667,Angola
Cacongo,-5.2333,12.1333,Angola
Tomboco,-6.8,13.3,Angola
Mucaba,-7.1667,14.9333,Angola
Cuchi,-14.65,16.9,Angola
Cuito Cuanavale,-15.1667,19.1667,Angola
Cacuso,-8.2377,15.3512,Angola
Cacuso,-9.4167,15.7333,Angola
Puri,-7.6833,15.6,Angola
Quilevo,-7.6167,15.05,Angola
Golungo Alto,-9.1333,14.7667,Angola
Muconda,-10.6,21.3167,Angola
Bembe,-7.1,14.45,Angola
Massango,-11.3167,14.9333,Angola
Buco Zau,-4.7617,12.5419,Angola
Virei,-15.7167,12.95,Angola
Cacolo,-10.1333,19.2667,Angola
Tchindjendje,-12.8167,14.9333,Angola
Mucari,-9.4667,16.9167,Angola
Marimba,-8.3667,17.0167,Angola
Dala,-11.0342,20.2036,Angola
Caungula,-8.4316,18.6328,Angola
Noqui,-5.8681,13.4325,Angola
Ambriz,-7.85,13.1167,Angola
Lucala,-9.6333,14.0667,Angola
Samba Cango,-9.1,15.55,Angola
Caombo,-8.7,16.5167,Angola
Quirima,-10.9,18.0833,Angola
Alto-Cuilo,-10.049,19.5155,Angola
Cuilo,-10.05,19.5167,Angola
Quela,-9.3833,17.05,Angola
Luacano,-11.2167,21.65,Angola
Lubalo,-9.15,19.2833,Angola
Quibaxi,-8.5,14.5833,Angola
Ambiula,-7.4333,14.65,Angola
Cangandala,-9.7833,16.4333,Angola
Quimavango,-7.62,13.03,Angola
Lovua,-7.347,20.1751,Angola
Bula Atumba,-8.6753,14.7949,Angola
Bolongongo,-8.4667,15.25,Angola
Cunda dia Baze,-8.9167,17.0667,Angola
Nzeto,-7.2333,12.8667,Angola
Songo,-7.3496,14.85,Angola
Bibala,-14.7667,13.35,Angola
Banga,-8.7333,15.1667,Angola
Quiculungo,-8.5167,15.3167,Angola
Bala Cangamba,-13.6833,19.8667,Angola
Calenga,-11.3196,16.2,Angola
Tchitado,-17.3167,13.9167,Angola
Cazombo,-11.9,22.9,Angola
The Valley,18.2208,-63.0517,Anguilla
Saint John's,17.1167,-61.85,Antigua and Barbuda
Buenos Aires,-34.6036,-58.3814,Argentina
Cordoba,-31.4167,-64.1833,Argentina
Rosario,-32.9575,-60.6394,Argentina
Santiago del Estero,-27.7833,-64.2667,Argentina
La Plata,-34.9211,-57.9544,Argentina
Mar del Plata,-38,-57.55,Argentina
San Miguel de Tucuman,-26.8167,-65.2167,Argentina
Salta,-24.7833,-65.4167,Argentina
San Juan,-31.5342,-68.5261,Argentina
Lanus,-34.7,-58.4,Argentina
Santa Fe,-31.6333,-60.7,Argentina
Corrientes,-27.4833,-58.8167,Argentina
San Salvador de Jujuy,-24.1833,-65.3,Argentina
Bahia Blanca,-38.7167,-62.2667,Argentina
Resistencia,-27.4514,-58.9867,Argentina
Neuquen,-38.9525,-68.0642,Argentina
Posadas,-27.3667,-55.9,Argentina
Parana,-31.7331,-60.5297,Argentina
Quilmes,-34.7167,-58.2667,Argentina
Merlo,-34.6653,-58.7275,Argentina
Gonzalez Catan,-34.7667,-58.6167,Argentina
Formosa,-26.1833,-58.1833,Argentina
Banfield,-34.75,-58.3833,Argentina
Jose C. Paz,-34.5167,-58.7667,Argentina
San Rafael,-34.6,-68.3333,Argentina
Comodoro Rivadavia,-45.8647,-67.4808,Argentina
Rio Cuarto,-33.1333,-64.35,Argentina
Concordia,-31.4,-58.0333,Argentina
San Lorenzo,-32.75,-60.7333,Argentina
Godoy Cruz,-32.9167,-68.8333,Argentina
Isidro Casanova,-34.7,-58.5833,Argentina
Las Heras,-32.85,-68.8167,Argentina
La Rioja,-29.4125,-66.8542,Argentina
Berazategui,-34.7167,-58.25,Argentina
Hurlingham,-34.6,-58.6333,Argentina
San Luis,-33.3,-66.3333,Argentina
San Fernando,-34.45,-58.5667,Argentina
Jose Maria Ezeiza,-34.8333,-58.5167,Argentina
San Nicolas de los Arroyos,-33.3333,-60.2167,Argentina
Catamarca,-28.4667,-65.7833,Argentina
San Miguel,-34.5333,-58.7167,Argentina
Rafael Castillo,-34.7167,-58.6167,Argentina
Florencio Varela,-34.8167,-58.2833,Argentina
San Justo,-34.6833,-58.55,Argentina
Villa Mercedes,-33.6667,-65.4667,Argentina
Ituzaingo,-34.6667,-58.6667,Argentina
Temperley,-34.7667,-58.3833,Argentina
Ramos Mejia,-34.65,-58.5667,Argentina
Puerto Madryn,-42.7667,-65.05,Argentina
Mendoza,-32.8897,-68.8444,Argentina
San Carlos de Bariloche,-41.15,-71.3,Argentina
Lomas de Zamora,-34.7667,-58.4,Argentina
Bernal,-34.7,-58.2833,Argentina
Esteban Echeverria,-34.8167,-58.4667,Argentina
Gualeguaychu,-33.0167,-58.5167,Argentina
Zarate,-34.0833,-59.0333,Argentina
Castelar,-34.6667,-58.6667,Argentina
Villa Krause,-31.5833,-68.5333,Argentina
Lujan,-34.5667,-59.1,Argentina
Maipu,-32.9667,-68.75,Argentina
La Banda,-27.7333,-64.25,Argentina
Cipolletti,-38.9333,-67.9833,Argentina
Pergamino,-33.8833,-60.5667,Argentina
Santa Rosa,-36.6167,-64.2833,Argentina
Presidencia Roque Saenz Pena,-26.7833,-60.45,Argentina
Concepcion del Uruguay,-32.4833,-58.2333,Argentina
Libertad,-34.6833,-58.6833,Argentina
Moron,-34.65,-58.6167,Argentina
Burzaco,-34.8167,-58.3667,Argentina
Rio Grande,-53.7833,-67.7,Argentina
Trelew,-43.25,-65.3,Argentina
Rio Gallegos,-51.6233,-69.2161,Argentina
Caseros,-34.6106,-58.5625,Argentina
Villa Luzuriaga,-34.6667,-58.5833,Argentina
Ciudad General Belgrano,-34.7167,-58.5333,Argentina
Rafaela,-31.2667,-61.4833,Argentina
San Francisco Solano,-34.7667,-58.3167,Argentina
Necochea,-38.55,-58.7333,Argentina
Olavarria,-36.9,-60.3333,Argentina
Villa Maria,-32.4103,-63.2314,Argentina
Berisso,-34.8728,-57.8858,Argentina
Chimbas,-31.5,-68.5319,Argentina
Campana,-34.1667,-58.9167,Argentina
Junin,-34.5833,-60.95,Argentina
General Rodriguez,-34.6167,-58.95,Argentina
Grand Bourg,-34.4833,-58.7167,Argentina
Monte Chingolo,-34.7333,-58.35,Argentina
Venado Tuerto,-33.75,-61.9667,Argentina
Ushuaia,-54.8019,-68.3031,Argentina
Rivadavia,-31.5303,-68.5947,Argentina
Rivadavia,-33.1833,-68.4667,Argentina
Puerto Iguazu,-25.6,-54.5667,Argentina
Remedios de Escalada,-34.7167,-58.4,Argentina
Pilar,-34.45,-58.9167,Argentina
Gobernador Galvez,-33.0256,-60.6336,Argentina
Ezpeleta,-34.7517,-58.2344,Argentina
San Martin,-33.0806,-68.4706,Argentina
Villa Celina,-34.7167,-58.4833,Argentina
San Ramon de la Nueva Oran,-23.1333,-64.3333,Argentina
San Pedro,-33.6792,-59.6669,Argentina
Villa Carlos Paz,-31.4,-64.5167,Argentina
La Paz,-30.75,-59.65,Argentina
Reconquista,-29.2333,-59.9333,Argentina
Ciudadela,-34.6333,-58.5333,Argentina
Lujan de Cuyo,-32.998,-68.873,Argentina
Goya,-29.1333,-59.25,Argentina
Bella Vista,-34.5333,-58.6667,Argentina
Lomas del Mirador,-34.6667,-58.5297,Argentina
Obera,-27.4833,-55.1333,Argentina
Wilde,-34.7,-58.3167,Argentina
Martinez,-34.4833,-58.5,Argentina
Santo Tome,-31.6667,-60.7667,Argentina
Don Torcuato,-34.5,-58.6167,Argentina
Tigre,-34.5,-58.6167,Argentina
Gerli,-34.6833,-58.3667,Argentina
Pirane,-25.7328,-59.11,Argentina
Ensenada Berisso,-34.8667,-57.9,Argentina
Mercedes,-34.65,-59.4333,Argentina
Banda del Rio Sali,-26.85,-65.1667,Argentina
Tartagal,-22.5,-63.8333,Argentina
Tres Arroyos,-38.3667,-60.2667,Argentina
Villa Dominico,-34.6917,-58.3333,Argentina
San Francisco,-31.4356,-62.0714,Argentina
Los Polvorines,-34.5,-58.7,Argentina
Sarandi,-34.6833,-58.3333,Argentina
Viedma,-40.8,-63,Argentina
Garin,-34.4167,-58.75,Argentina
El Palomar,-34.6167,-58.5833,Argentina
Beccar,-34.4667,-58.5167,Argentina
San Pedro,-24.2196,-64.87,Argentina
Punta Alta,-38.88,-62.075,Argentina
Chivilcoy,-34.9,-60.0167,Argentina
Glew,-34.8833,-58.3833,Argentina
General Pico,-35.6667,-63.7333,Argentina
Eldorado,-26.4,-54.6333,Argentina
Rafael Calzada,-34.7833,-58.3667,Argentina
Azul,-36.7833,-59.85,Argentina
Barranqueras,-27.4833,-58.9333,Argentina
Belen de Escobar,-34.3333,-58.8167,Argentina
Ensenada,-34.8644,-57.9103,Argentina
Mariano Acosta,-34.7167,-58.7833,Argentina
Guernica,-34.9167,-58.3833,Argentina
Plottier,-38.95,-68.2333,Argentina
Caleta Olivia,-46.4333,-67.5333,Argentina
El Talar de Pacheco,-34.4719,-58.655,Argentina
Palpala,-24.25,-65.1167,Argentina
Yerba Buena,-26.8167,-65.3167,Argentina
Concepcion,-27.3333,-65.5833,Argentina
Villaguay,-31.85,-59.0167,Argentina
Perico,-24.3833,-65.1167,Argentina
Tunuyan,-33.5667,-69.0167,Argentina
Centenario,-38.8,-68.1333,Argentina
Florida,-34.5167,-58.5,Argentina
Alta Gracia,-31.6667,-64.4333,Argentina
La Reja,-34.6394,-58.8283,Argentina
Cosquin,-31.2436,-64.4653,Argentina
San Lorenzo,-28.1381,-58.7681,Argentina
Longchamps,-34.85,-58.3833,Argentina
Catriel,-37.8667,-67.8333,Argentina
Villa Constitucion,-33.2333,-60.3333,Argentina
General Martin Miguel de Guemes,-24.6667,-65.05,Argentina
Clorinda,-25.2833,-57.7167,Argentina
San Justo,-30.7833,-60.5833,Argentina
Libertador General San Martin,-23.8,-64.7833,Argentina
Rio Tercero,-32.1833,-64.1,Argentina
Trenque Lauquen,-35.9667,-62.7,Argentina
Chajari,-30.7667,-57.9833,Argentina
La Calera,-31.3439,-64.3353,Argentina
Pinamar,-37.1,-56.85,Argentina
Balcarce,-37.8456,-58.2578,Argentina
San Vicente,-35.0167,-58.4167,Argentina
San Isidro,-34.4739,-58.525,Argentina
General Pacheco,-34.45,-58.65,Argentina
Paso de los Libres,-29.7167,-57.0833,Argentina
Dock Sur,-34.6417,-58.3478,Argentina
Gualeguay,-33.15,-59.3333,Argentina
Coronel Suarez,-37.4667,-61.9333,Argentina
Esperanza,-31.4427,-60.9257,Argentina
Tolosa,-34.8942,-57.9647,Argentina
Llavallol,-34.7667,-58.3833,Argentina
Villa Angela,-27.5833,-60.7167,Argentina
Tortuguitas,-34.475,-58.7556,Argentina
Claypole,-34.8,-58.3333,Argentina
Villa Alsina,-34.6667,-58.4167,Argentina
Jose Marmol,-34.7833,-58.3667,Argentina
Apostoles,-27.9167,-55.7667,Argentina
Zapala,-38.9,-70.0667,Argentina
Cutral-Co,-38.9333,-69.2333,Argentina
Tafi Viejo,-26.7333,-65.2667,Argentina
Virreyes,-34.45,-58.5333,Argentina
Marcos Paz,-34.7667,-58.8333,Argentina
Ingeniero Pablo Nogues,-34.4667,-58.7667,Argentina
Chacabuco,-34.6333,-60.4667,Argentina
Funes,-32.9167,-60.8167,Argentina
Aristobulo del Valle,-27.1167,-54.9167,Argentina
San Antonio de Padua,-34.6667,-58.7,Argentina
Haedo,-34.65,-58.6,Argentina
Granadero Baigorria,-32.85,-60.7,Argentina
San Martin de los Andes,-40.1667,-71.35,Argentina
Esquel,-42.9,-71.3167,Argentina
Nueve de Julio,-35.45,-60.8833,Argentina
Munro,-34.5333,-58.5167,Argentina
Veinticinco de Mayo,-35.4167,-60.1667,Argentina
Villa Adelina,-34.5167,-58.5333,Argentina
Villa Ballester,-34.5167,-58.5333,Argentina
General Villegas,-35.0333,-63.0167,Argentina
Casilda,-33.05,-61.1667,Argentina
Curuzu Cuatia,-29.7833,-58.0833,Argentina
Bell Ville,-32.6333,-62.6833,Argentina
Chilecito,-29.1667,-67.5,Argentina
Chascomus,-35.575,-58.0089,Argentina
Mercedes,-29.2,-58.0833,Argentina
Bragado,-35.1167,-60.5,Argentina
City Bell,-34.85,-58.05,Argentina
Arrecifes,-34.0667,-60.1167,Argentina
Termas de Rio Hondo,-27.4833,-64.8667,Argentina
Canada de Gomez,-32.8167,-61.4,Argentina
Aguilares,-27.4333,-65.6167,Argentina
Quitilipi,-26.8667,-60.2167,Argentina
Fontana,-27.4167,-59.0333,Argentina
Canuelas,-35.0333,-58.7333,Argentina
Avellaneda,-34.6625,-58.3678,Argentina
Allen,-38.9667,-67.8333,Argentina
General Jose de San Martin,-26.5375,-59.3417,Argentina
Jesus Maria,-30.9833,-64.1,Argentina
Pehuajo,-35.8,-61.9,Argentina
Lobos,-35.1833,-59.0833,Argentina
Pichanal,-23.3167,-64.2167,Argentina
Cruz del Eje,-30.7333,-64.8,Argentina
Gobernador Virasora,-28.05,-56.0333,Argentina
Victoria,-32.6167,-60.1667,Argentina
Miramar,-38.2667,-57.8333,Argentina
Villa Regina,-39.1,-67.0667,Argentina
Brandsen,-35.1667,-58.2167,Argentina
General Alvear,-34.9667,-67.7,Argentina
Villa Dolores,-31.9333,-65.2,Argentina
Villa Gesell,-37.25,-56.9833,Argentina
Capitan Bermudez,-32.8167,-60.7167,Argentina
Bella Vista,-28.4667,-59.05,Argentina
Garupa,-27.4833,-55.8333,Argentina
Baradero,-33.8,-59.5167,Argentina
General San Martin,-34.5667,-58.5333,Argentina
Adrogue,-34.8,-58.3833,Argentina
Caucete,-31.65,-68.2833,Argentina
Lincoln,-34.85,-61.5167,Argentina
Malargue,-35.475,-69.5833,Argentina
Cinco Saltos,-38.8167,-68.0667,Argentina
Castelli,-25.95,-60.6167,Argentina
Marcos Juarez,-32.7,-62.1,Argentina
Santa Maria,-26.6833,-66.0333,Argentina
San Antonio de Areco,-34.25,-59.4667,Argentina
Las Flores,-36.0139,-59.1,Argentina
Frias,-28.6333,-65.1333,Argentina
San Andres de Giles,-34.4333,-59.4333,Argentina
Charata,-27.2167,-61.2,Argentina
Perez,-33,-60.7667,Argentina
Muniz,-34.5333,-58.7,Argentina
Rosario de la Frontera,-25.8,-64.9667,Argentina
Dolores,-36.3167,-57.6667,Argentina
Firmat,-33.45,-61.4833,Argentina
Jardin America,-27.05,-55.2333,Argentina
Mar de Ajo,-36.7203,-56.6878,Argentina
Leandro N. Alem,-27.6,-55.3333,Argentina
Candelaria,-27.4594,-55.7453,Argentina
Tres Isletas,-26.35,-60.4167,Argentina
Rawson,-43.3,-65.1,Argentina
Vicente Lopez,-34.5333,-58.475,Argentina
Embarcacion,-23.2167,-64.1,Argentina
Tapiales,-34.7058,-58.5047,Argentina
Monte Caseros,-30.25,-57.65,Argentina
Avellaneda,-29.1175,-59.6583,Argentina
Santo Tome,-28.55,-56.05,Argentina
Anatuya,-28.4667,-62.8333,Argentina
Monteros,-27.1667,-65.5,Argentina
Colon,-33.8833,-61.1,Argentina
Colon,-32.2167,-58.1333,Argentina
Manuel B. Gonnet,-34.85,-58.0167,Argentina
Las Brenas,-27.0667,-61.0667,Argentina
Famailla,-27.05,-65.4,Argentina
El Calafate,-50.3378,-72.26,Argentina
Nogoya,-32.4,-59.8,Argentina
General Viamonte,-35,-61.0333,Argentina
Melchor Romero,-34.9492,-58.0472,Argentina
San Martin,-31.4397,-68.5206,Argentina
Machagai,-26.9167,-60.0333,Argentina
Rosario de Lerma,-24.9833,-65.5833,Argentina
Dean Funes,-30.4333,-64.35,Argentina
Alejandro Korn,-34.9667,-58.3667,Argentina
Carlos Casares,-35.6167,-61.3667,Argentina
San Isidro de Lules,-26.9333,-65.35,Argentina
Joaquin V. Gonzalez,-25.0833,-64.1833,Argentina
San Jose de Jachal,-30.2333,-68.75,Argentina
Pico Truncado,-46.795,-67.955,Argentina
Don Bosco,-34.7,-58.2833,Argentina
General Belgrano,-35.7667,-58.5,Argentina
Profesor Salvador Mazza,-22.05,-63.7,Argentina
Arroyo Seco,-33.1667,-60.5,Argentina
Santa Elena,-30.95,-59.8,Argentina
Sunchales,-30.9333,-61.5667,Argentina
Laboulaye,-34.1167,-63.4,Argentina
Carmen de Patagones,-40.7833,-62.9667,Argentina
Galvez,-32.0333,-61.2167,Argentina
Matheu,-34.3667,-58.8333,Argentina
Saavedra,-37.7833,-62.35,Argentina
Rio Segundo,-31.6501,-63.9116,Argentina
Villa Elisa,-34.8533,-58.0792,Argentina
Arroyito,-31.4167,-63.05,Argentina
Ituzaingo,-27.6,-56.6667,Argentina
Crespo,-32.0333,-60.3167,Argentina
San Jorge,-31.8961,-61.8597,Argentina
Vera,-29.4667,-60.2167,Argentina
Diamante,-32.0667,-60.65,Argentina
Billinghurst,-34.5667,-58.5333,Argentina
Martin Coronado,-34.6,-58.55,Argentina
Villa Ocampo,-28.4833,-59.35,Argentina
Santa Rosa de Calamuchita,-32.0667,-64.5333,Argentina
El Bolson,-41.9667,-71.5333,Argentina
Rufino,-34.2619,-62.7114,Argentina
Carlos Spegazzini,-34.8833,-58.5667,Argentina
Villa Nueva,-32.4331,-63.2475,Argentina
Junin de los Andes,-39.9167,-71.0667,Argentina
Unquillo,-31.2333,-64.3167,Argentina
Saladas,-28.25,-58.6167,Argentina
Monte Cristo,-31.3431,-63.9444,Argentina
Aldo Bonzi,-34.7083,-58.5181,Argentina
Coronda,-31.9667,-60.9167,Argentina
General Juan Madariaga,-37.0167,-57.1333,Argentina
General Las Heras,-34.9333,-58.95,Argentina
General Deheza,-32.7564,-63.7889,Argentina
Las Heras,-46.55,-68.95,Argentina
Cerrillos,-24.9,-65.4833,Argentina
Puerto Rico,-26.8,-55.0167,Argentina
Villa Sarmiento,-34.6333,-58.5667,Argentina
Ayacucho,-37.1333,-58.4667,Argentina
Carcarana,-32.85,-61.15,Argentina
Morteros,-30.7,-62,Argentina
La Quiaca,-22.1042,-65.5972,Argentina
Daireaux,-36.6,-61.75,Argentina
Federacion,-30.9833,-57.9167,Argentina
Puan,-37.55,-62.7667,Argentina
General Arenales,-34.2833,-61.2833,Argentina
Villa San Jose,-32.2,-58.2167,Argentina
La Falda,-31.0833,-64.5,Argentina
San Antonio Oeste,-40.7333,-64.95,Argentina
Carhue,-37.1796,-62.7601,Argentina
Federal,-30.95,-58.8,Argentina
Capitan Sarmiento,-34.1667,-59.7833,Argentina
Plaza Huincul,-38.9338,-69.1987,Argentina
La Lucila,-34.4833,-58.4833,Argentina
Santa Rosa,-33.25,-68.15,Argentina
General Pinedo,-27.3167,-61.2833,Argentina
Chos Malal,-37.3833,-70.2667,Argentina
Wanda,-25.9667,-54.5833,Argentina
Villa del Rosario,-31.5833,-63.5333,Argentina
San Luis del Palmar,-27.5167,-58.5667,Argentina
Villa Paranacito,-33.7,-58.6833,Argentina
Fray Luis A. Beltran,-32.7833,-60.7333,Argentina
Bella Vista,-27.0333,-65.3,Argentina
Villa Ojo de Agua,-29.5167,-63.7,Argentina
Pilar,-31.6833,-63.9,Argentina
Tostado,-29.2333,-61.7667,Argentina
Ceres,-29.8667,-61.95,Argentina
Rauch,-36.7667,-59.1,Argentina
General Cabrera,-32.7994,-63.8683,Argentina
San Cristobal,-30.3167,-61.2333,Argentina
Benito Juarez,-37.6667,-59.7833,Argentina
Villa La Angostura,-40.7625,-71.6463,Argentina
Puerto Deseado,-47.75,-65.9167,Argentina
Roldan,-32.9011,-60.9072,Argentina
Andalgala,-27.6,-66.3167,Argentina
Pigue,-37.6167,-62.4167,Argentina
San Javier,-30.5833,-59.95,Argentina
Puerto San Martin,-32.7167,-60.7333,Argentina
Oncativo,-31.9167,-63.6667,Argentina
General Enrique Mosconi,-22.6,-63.8167,Argentina
Las Rosas,-32.4833,-61.5833,Argentina
Chamical,-30.3667,-66.3167,Argentina
Adolfo Gonzales Chaves,-38.0333,-60.0833,Argentina
Acasusso,-34.4667,-58.5167,Argentina
Rosario del Tala,-32.3,-59.1333,Argentina
San Salvador,-31.6167,-58.5,Argentina
General Acha,-37.3833,-64.6,Argentina
Monte Quemado,-25.8036,-62.8303,Argentina
La Carlota,-33.4333,-63.3,Argentina
Ingeniero Maschwitz,-34.3667,-58.75,Argentina
Las Lomitas,-24.7072,-60.5944,Argentina
Las Parejas,-32.6833,-61.5333,Argentina
Laguna Paiva,-31.3039,-60.6589,Argentina
Villa Union,-29.3,-68.2,Argentina
Belen,-27.65,-67.0333,Argentina
Presidencia de la Plaza,-26.9833,-59.8333,Argentina
Loberia,-38.1333,-58.7667,Argentina
Malvinas Argentinas,-31.3697,-64.0531,Argentina
Justo Daract,-33.8667,-65.1667,Argentina
Ibicuy,-33.7333,-59.1833,Argentina
Villa Berthet,-27.2667,-60.4167,Argentina
Carmen de Areco,-34.3858,-59.8294,Argentina
Recreo,-29.2667,-65.0667,Argentina
Cafayate,-26.0833,-65.9667,Argentina
Tornquist,-38.1,-62.2167,Argentina
Rio Colorado,-38.9908,-64.0958,Argentina
Oliva,-32.0333,-63.5667,Argentina
Villa General Belgrano,-31.9667,-64.5667,Argentina
Santa Lucia,-28.9833,-59.1,Argentina
Navarro,-35.0167,-59.2667,Argentina
Coronel Dorrego,-38.7,-61.2667,Argentina
Tinogasta,-28.0667,-67.5667,Argentina
Ramallo,-33.3167,-60.2,Argentina
Humahuaca,-23.2,-65.35,Argentina
Senillosa,-39.01,-68.43,Argentina
Hernando,-32.4167,-63.7333,Argentina
Capilla del Monte,-30.85,-64.5167,Argentina
Armstrong,-32.7833,-61.6,Argentina
San Bernardo,-27.2667,-60.7,Argentina
El Trebol,-32.1833,-61.7167,Argentina
San Carlos Centro,-31.7333,-61.1,Argentina
Quimili,-27.6333,-62.4167,Argentina
Roque Perez,-35.4167,-59.3167,Argentina
Bernardo de Irigoyen,-26.25,-53.9833,Argentina
San Roque,-28.5667,-58.7167,Argentina
Santa Rosa de Rio Primero,-31.15,-63.3833,Argentina
Sarmiento,-45.6,-69.0833,Argentina
Villa Nougues,-26.8578,-65.3756,Argentina
Campo Largo,-26.8,-60.8333,Argentina
Frontera,-31.4278,-62.0619,Argentina
Ingeniero White,-38.7667,-62.2667,Argentina
Corzuela,-26.9333,-60.9667,Argentina
Corral de Bustos,-33.2833,-62.2,Argentina
Leones,-32.6589,-62.2967,Argentina
Ranchos,-35.5333,-58.2833,Argentina
San Jose de Feliciano,-30.3833,-58.75,Argentina
Villa Elisa,-32.1667,-58.4,Argentina
Batan,-38.0078,-57.7097,Argentina
Choele Choel,-39.2667,-65.6833,Argentina
La Leonesa,-27.05,-58.7167,Argentina
Brinkmann,-30.8669,-62.0336,Argentina
Kaiken,-54.5062,-67.1905,Argentina
Alcorta,-33.5333,-61.1167,Argentina
Ciudad de Loreto,-28.3,-64.2,Argentina
General Alvear,-36.0333,-60.0167,Argentina
Puerto Tirol,-27.3667,-59.0667,Argentina
Basavilbaso,-32.3667,-58.8833,Argentina
Embalse,-32.1833,-64.4167,Argentina
Henderson,-36.2833,-61.7167,Argentina
La Paz,-33.4667,-67.55,Argentina
Santa Maria,-31.2611,-64.4639,Argentina
Pedro Luro,-39.5,-62.6833,Argentina
Villa Canas,-34,-61.6,Argentina
Huinca Renanco,-34.84,-64.3753,Argentina
Abra Pampa,-22.7167,-65.7,Argentina
Punta Indio,-35.2667,-57.2167,Argentina
Magdalena,-35.0833,-57.5167,Argentina
Empedrado,-27.9333,-58.7833,Argentina
Capilla del Senor,-34.2833,-59.1,Argentina
Romang,-29.5,-59.7667,Argentina
Monte Rico,-24.4514,-65.1667,Argentina
Sauce,-30.0667,-58.7667,Argentina
Rada Tilly,-45.9333,-67.5333,Argentina
Santa Sylvina,-27.7833,-61.15,Argentina
Coronel Du Graty,-27.6667,-60.9333,Argentina
Mburucuya,-28.05,-58.2333,Argentina
Urdinarrain,-32.6856,-58.8867,Argentina
Villa Aberastain,-31.65,-68.5833,Argentina
Viale,-31.8667,-60.0167,Argentina
Maipu,-36.8667,-57.8667,Argentina
Balneario Monte Hermoso,-38.9833,-61.3,Argentina
Yacimiento Rio Turbio,-51.5333,-72.3,Argentina
La Cruz,-28.1833,-56.65,Argentina
Pampa del Infierno,-26.5167,-61.1667,Argentina
San Julian,-49.3,-67.7167,Argentina
Ingeniero Guillermo N. Juarez,-23.9,-61.85,Argentina
Comandante Luis Piedra Buena,-49.983,-68.91,Argentina
Ingeniero Jacobacci,-41.3,-69.5833,Argentina
Las Lajas,-38.6,-70.3,Argentina
Veintiocho de Noviembre,-51.65,-72.3,Argentina
Chepes,-31.35,-66.6,Argentina
Veinticinco de Mayo,-37.7712,-67.7174,Argentina
General Conesa,-40.1,-64.4167,Argentina
San Antonio de los Cobres,-24.2178,-66.32,Argentina
Perito Moreno,-46.5886,-70.9242,Argentina
Gobernador Gregores,-48.7667,-70.25,Argentina
Victorica,-36.2167,-65.45,Argentina
Comandante Fontana,-25.3333,-59.6833,Argentina
El Maiten,-42.05,-71.1667,Argentina
Uspallata,-32.5667,-69.3167,Argentina
Darregueira,-37.6996,-63.1666,Argentina
Trancas,-26.2172,-65.2831,Argentina
Villalonga,-39.8829,-62.5833,Argentina
Rio Mayo,-45.6869,-70.26,Argentina
Rodeo,-30.2164,-69.1394,Argentina
Chumbicha,-28.8667,-66.2333,Argentina
Alto Rio Senguer,-45.0167,-70.8167,Argentina
Sierra Colorada,-40.5833,-67.8,Argentina
Villa Rumipal,-32.1879,-64.4803,Argentina
Los Blancos,-23.6,-62.6,Argentina
Susques,-23.4167,-66.4833,Argentina
Comallo,-41.0333,-70.2667,Argentina
Gastre,-42.2667,-69.2167,Argentina
Telsen,-42.3833,-66.95,Argentina
Tandil,-37.3167,-59.1333,Argentina
Rinconada,-22.4333,-66.1667,Argentina
General Roca,-39.0333,-67.5833,Argentina
Yerevan,40.1814,44.5144,Armenia
Gyumri,40.7894,43.8475,Armenia
Vanadzor,40.8128,44.4883,Armenia
Ejmiatsin,40.1728,44.2925,Armenia
Hrazdan,40.5,44.7667,Armenia
Abovyan,40.2739,44.6256,Armenia
Kapan,39.2011,46.415,Armenia
Armavir,40.15,44.04,Armenia
Charentsavan,40.4097,44.6431,Armenia
Stepanavan,41.0096,44.3841,Armenia
Sevan,40.555,44.9536,Armenia
Ashtarak,40.2975,44.3617,Armenia
Masis,40.0633,44.4408,Armenia
Artashat,39.9539,44.5506,Armenia
Gavarr,40.3667,45.1333,Armenia
Goris,39.5111,46.3417,Armenia
Artik,40.6167,43.95,Armenia
Artik,40.6172,43.9758,Armenia
Ijevan,40.8756,45.1492,Armenia
Dilijan,40.7408,44.8631,Armenia
Spitak,40.8372,44.2675,Armenia
Sisian,39.5208,46.0322,Armenia
Vedi,39.91,44.73,Armenia
Alaverdi,41.1333,44.65,Armenia
Vardenis,40.18,45.72,Armenia
Martuni,40.14,45.3064,Armenia
Yeghvard,40.3217,44.4814,Armenia
Vardenik,40.135,45.4364,Armenia
Metsamor,40.1428,44.1164,Armenia
Berd,40.8808,45.3917,Armenia
Byureghavan,40.3147,44.5936,Armenia
Nor Hachn,40.3019,44.5831,Armenia
Tashir,41.1244,44.2819,Armenia
Nerk'in Getashen,40.1458,45.2639,Armenia
Yeghegnadzor,39.7667,45.35,Armenia
Oranjestad,12.5186,-70.0358,Aruba
Tanki Leendert,12.5418,-70.022,Aruba
Melbourne,-37.8142,144.9631,Australia
Sydney,-33.8667,151.2,Australia
Brisbane,-27.4678,153.0281,Australia
Perth,-31.9558,115.8597,Australia
Adelaide,-34.9275,138.6,Australia
Gold Coast,-28.0167,153.4,Australia
Cranbourne,-38.0996,145.2834,Australia
Canberra,-35.2931,149.1269,Australia
Central Coast,-33.3,151.2,Australia
Wollongong,-34.4331,150.8831,Australia
Ipswich,-27.6144,152.7608,Australia
Hobart,-42.8806,147.325,Australia
Geelong,-38.15,144.35,Australia
Townsville,-19.25,146.8167,Australia
Newcastle,-32.9306,151.7542,Australia
Cairns,-16.92,145.78,Australia
Darwin,-12.4381,130.8411,Australia
Ballarat,-37.5608,143.8475,Australia
Toowoomba,-27.5667,151.95,Australia
Bendigo,-36.75,144.2667,Australia
Mandurah,-32.5289,115.7231,Australia
Launceston,-41.4419,147.145,Australia
Melton,-37.6833,144.5833,Australia
Mackay,-21.1411,149.1858,Australia
Bunbury,-33.3272,115.6369,Australia
Bundaberg,-24.8661,152.3494,Australia
Maroochydore,-26.6553,153.0932,Australia
Rockhampton,-23.3781,150.5136,Australia
Buderim,-26.6847,153.0532,Australia
Hervey Bay,-25.29,152.84,Australia
Wagga Wagga,-35.1189,147.3689,Australia
Pakenham,-38.0712,145.4878,Australia
Port Macquarie,-31.4333,152.9,Australia
Caloundra,-26.8047,153.1338,Australia
Dubbo,-32.2569,148.6011,Australia
Orange,-33.2833,149.1,Australia
Frankston,-38.1333,145.1167,Australia
Sunbury,-37.5811,144.7139,Australia
Gladstone,-23.8427,151.2555,Australia
Mildura,-34.1889,142.1583,Australia
Bathurst,-33.42,149.5778,Australia
Palmerston,-12.4806,130.9831,Australia
Geraldton,-28.7744,114.6089,Australia
Shepparton,-36.3833,145.4,Australia
Southport,-27.9678,153.4136,Australia
Kalgoorlie,-30.7489,121.4658,Australia
Dandenong,-37.981,145.215,Australia
Warrnambool,-38.3833,142.4833,Australia
Quakers Hill,-33.7361,150.8778,Australia
Caboolture,-27.085,152.9513,Australia
Coffs Harbour,-30.3022,153.1189,Australia
Mount Gambier,-37.8294,140.7828,Australia
Busselton,-33.6478,115.3458,Australia
Albany,-35.0228,117.8814,Australia
Traralgon,-38.1958,146.5403,Australia
Goulburn,-34.7558,149.7206,Australia
Alice Springs,-23.7,133.87,Australia
Warragul,-38.15,145.9333,Australia
Devonport,-41.18,146.3503,Australia
Whyalla,-33.0333,137.5667,Australia
Armidale,-30.5,151.65,Australia
Wodonga,-36.1214,146.8881,Australia
Coomera,-27.8722,153.3147,Australia
Kwinana,-32.2394,115.7702,Australia
Kurri Kurri,-32.8167,151.4833,Australia
Burnie,-41.0636,145.8753,Australia
Narangba,-27.2022,152.9591,Australia
Griffith,-34.29,146.04,Australia
Mount Eliza,-38.189,145.092,Australia
Broken Hill,-31.95,141.4667,Australia
Wangaratta,-36.3583,146.3125,Australia
Karratha,-20.7364,116.8464,Australia
Nerang,-27.9902,153.3358,Australia
Taree,-31.9,152.45,Australia
Banora Point,-28.2167,153.5333,Australia
Ormeau,-27.7966,153.26,Australia
Lara,-38.0167,144.4167,Australia
Maryborough,-25.5375,152.7019,Australia
Ulladulla,-35.3486,150.4678,Australia
Rochedale,-27.5991,153.1297,Australia
Cessnock,-32.8342,151.3555,Australia
Horsham,-36.7167,142.2,Australia
Echuca,-36.1333,144.75,Australia
Murray Bridge,-35.117,139.267,Australia
Wallan,-37.4167,144.9833,Australia
Australind,-33.28,115.726,Australia
Barwon Heads,-38.25,144.5167,Australia
Port Lincoln,-34.7322,135.8586,Australia
Emerald,-23.5208,148.1619,Australia
Mount Barker,-35.0667,138.85,Australia
Morwell,-38.2333,146.4,Australia
Forster,-32.1806,152.5117,Australia
Sale,-38.1,147.0667,Australia
Penrith,-33.7511,150.6942,Australia
Torquay,-38.3333,144.3167,Australia
Goonellabah,-28.8167,153.3167,Australia
Raymond Terrace,-32.7615,151.7441,Australia
Leopold,-38.1892,144.4644,Australia
Campbelltown,-34.0667,150.8167,Australia
Drouin,-38.1333,145.85,Australia
Warwick,-28.2152,152.0352,Australia
Dalby,-27.1813,151.2661,Australia
Rutherford,-32.7153,151.525,Australia
Broome,-17.9619,122.2361,Australia
Somerville,-38.226,145.177,Australia
Gracemere,-23.4391,150.4558,Australia
Batemans Bay,-35.7081,150.1744,Australia
Nambour,-26.6269,152.9591,Australia
Corinda,-27.4858,153.1011,Australia
Muswellbrook,-32.2656,150.8886,Australia
Gympie,-26.19,152.6655,Australia
Kingston,-42.9769,147.3083,Australia
Grafton,-29.6833,152.9333,Australia
Kangaroo Flat,-36.7833,144.2333,Australia
Bowral,-34.4792,150.4181,Australia
Benalla,-36.5519,145.9817,Australia
Esperance,-33.8611,121.8919,Australia
Kingaroy,-26.541,151.84,Australia
Hamilton,-37.7333,142.0167,Australia
Casino,-28.8667,153.05,Australia
Swan Hill,-35.3333,143.55,Australia
Parkes,-33.1333,148.1667,Australia
Mudgee,-32.6125,149.5872,Australia
Currumbin,-28.1575,153.4686,Australia
Portland,-38.3333,141.6,Australia
Mount Evelyn,-37.783,145.385,Australia
Inverell,-29.7667,151.1167,Australia
Bowen,-20.0102,148.2416,Australia
Highfields,-27.4633,151.9458,Australia
Andergrove,-21.093,149.1855,Australia
Nowra,-34.8808,150.6075,Australia
Coolum Beach,-26.5295,153.091,Australia
Flemington,-33.868,151.0709,Australia
Wollert,-37.597,145.033,Australia
Colac,-38.3403,143.5847,Australia
Gisborne,-37.49,144.5889,Australia
Kelso,-33.4189,149.6058,Australia
Yanchep,-31.55,115.634,Australia
Moe,-38.1722,146.2678,Australia
Moranbah,-22.0016,148.0533,Australia
Ballina,-28.8636,153.5328,Australia
Redlynch,-16.8894,145.6977,Australia
Mareeba,-16.9969,145.423,Australia
Moss Vale,-34.55,150.3833,Australia
Gunnedah,-30.9667,150.25,Australia
Cowra,-33.8339,148.7,Australia
Ayr,-19.5744,147.4066,Australia
Tweed Heads,-28.1833,153.55,Australia
Bongaree,-27.0813,153.1636,Australia
Charters Towers,-20.0765,146.2614,Australia
Katoomba,-33.71,150.31,Australia
Maryborough,-37.05,143.735,Australia
Young,-34.3,148.3,Australia
Bairnsdale,-37.8275,147.625,Australia
Leeton,-34.5667,146.4,Australia
Atherton,-17.2658,145.478,Australia
Narrabri,-30.3167,149.7667,Australia
Moree,-29.4658,149.8339,Australia
Ararat,-37.2833,142.9167,Australia
Kiama,-34.6708,150.8542,Australia
Forbes,-33.3833,148.0167,Australia
Cooma,-36.235,149.1258,Australia
Seymour,-37.03,145.13,Australia
Port Augusta,-32.4925,137.7658,Australia
Northam,-31.6531,116.6661,Australia
Roma,-26.5733,148.7869,Australia
Newman,-23.3539,119.7319,Australia
Deniliquin,-35.5297,144.9569,Australia
Yeppoon,-23.1288,150.7444,Australia
Queanbeyan,-35.3533,149.2342,Australia
Tumut,-35.3047,148.2228,Australia
Yamba,-29.4333,153.35,Australia
Biloela,-24.4002,150.5133,Australia
Stawell,-37.05,142.7667,Australia
Byron Bay,-28.6431,153.615,Australia
Goondiwindi,-28.5461,150.3097,Australia
Richmond,-33.6,150.75,Australia
Cobram,-35.9667,145.65,Australia
McMinns Lagoon,-12.5329,131.05,Australia
Scone,-32.0833,150.85,Australia
Singleton,-32.5667,151.1697,Australia
Wonthaggi,-38.6056,145.5917,Australia
Lithgow,-33.4833,150.15,Australia
Albury,-36.0806,146.9158,Australia
Kununurra,-15.7736,128.7386,Australia
Ingham,-18.6508,146.1572,Australia
Narrogin,-32.936,117.178,Australia
Victor Harbor,-35.55,138.6167,Australia
Manjimup,-34.2411,116.1464,Australia
Berri,-34.2833,140.6,Australia
Port Hedland,-20.31,118.6011,Australia
Katanning,-33.6908,117.5553,Australia
Lismore,-28.8167,153.2833,Australia
Merimbula,-36.8981,149.9011,Australia
Ceduna,-32.1167,133.6667,Australia
Port Douglas,-16.4834,145.4652,Australia
Wallaroo,-33.9167,137.6167,Australia
Proserpine,-20.4016,148.5808,Australia
Weipa,-12.63,141.8786,Australia
Smithton,-40.8417,145.125,Australia
Clare,-33.8333,138.6,Australia
Tom Price,-22.6939,117.795,Australia
Bordertown,-36.3118,140.7702,Australia
Longreach,-23.4422,144.2491,Australia
Charleville,-26.4016,146.2383,Australia
Cloncurry,-20.7047,140.5053,Australia
Exmouth,-21.9331,114.1281,Australia
Merredin,-31.482,118.279,Australia
Scottsdale,-41.1611,147.5164,Australia
Mount Barker,-34.63,117.6669,Australia
Maitland,-32.7167,151.55,Australia
Queenstown,-42.0806,145.5556,Australia
Bourke,-30.0817,145.9511,Australia
Tumby Bay,-34.3667,136.1,Australia
Halls Creek,-18.23,127.67,Australia
Peterborough,-32.9667,138.8333,Australia
Port Denison,-29.275,114.9194,Australia
Penola,-37.3786,140.8362,Australia
Kingston South East,-36.8167,139.85,Australia
Wagin,-33.3167,117.35,Australia
Kalbarri,-27.71,114.16,Australia
Katherine,-14.4667,132.2667,Australia
Barcaldine,-23.5555,145.2888,Australia
Innisfail,-17.5238,146.0311,Australia
Ouyen,-35.0667,142.3167,Australia
Hughenden,-20.8438,144.1986,Australia
Cowell,-33.6833,136.9167,Australia
Streaky Bay,-32.799,134.2048,Australia
Laverton,-28.6278,122.4031,Australia
Meningie,-35.6883,139.3378,Australia
Winton,-22.3913,143.0381,Australia
Yulara,-25.2069,130.971,Australia
Gingin,-31.34,115.91,Australia
Onslow,-21.64,115.11,Australia
Bicheno,-41.8667,148.2833,Australia
Wyndham,-15.4825,128.1228,Australia
Roebourne,-20.7667,117.15,Australia
Pannawonica,-21.6333,116.3333,Australia
Meekatharra,-26.5936,118.4953,Australia
Leonora,-28.8845,121.3308,Australia
Gawler,-34.5981,138.745,Australia
Kimba,-33.1396,136.4191,Australia
Oatlands,-42.3,147.3706,Australia
Norseman,-32.1961,121.7781,Australia
Wilcannia,-31.5569,143.3792,Australia
Quilpie,-26.6161,144.2675,Australia
Southern Cross,-31.2306,119.3278,Australia
Karumba,-17.4838,140.8397,Australia
Kempsey,-31.0833,152.8333,Australia
Mount Magnet,-28.06,117.8461,Australia
Richmond,-20.7305,143.1425,Australia
Woomera,-31.1496,136.8,Australia
Morawa,-29.2111,116.0089,Australia
Theodore,-24.9472,150.0755,Australia
Eidsvold,-25.3719,151.123,Australia
Three Springs,-29.5333,115.7617,Australia
Ravensthorpe,-33.5817,120.0469,Australia
Pine Creek,-13.8235,131.8262,Australia
Andamooka,-30.4485,137.1651,Australia
Adelaide River,-13.2378,131.1047,Australia
Burketown,-17.7408,139.5477,Australia
Georgetown,-18.2922,143.548,Australia
Boulia,-22.9097,139.9066,Australia
Carnarvon,-24.8672,113.6611,Australia
Thargomindah,-27.9922,143.8197,Australia
Tamworth,-31.0833,150.9167,Australia
Port Pirie,-33.1858,138.0169,Australia
Ivanhoe,-32.9164,144.2994,Australia
Camooweal,-19.9211,138.1194,Australia
Bedourie,-24.3594,139.4691,Australia
Mount Isa,-20.7261,139.4939,Australia
Birdsville,-25.8986,139.3513,Australia
Windorah,-25.4205,142.6544,Australia
Kingoonya,-30.917,135.3147,Australia
Vienna,48.2083,16.3725,Austria
Graz,47.0708,15.4386,Austria
Linz,48.3058,14.2864,Austria
Lochau,47.5167,9.75,Austria
Salzburg,47.8,13.045,Austria
Innsbruck,47.2683,11.3933,Austria
Klagenfurt,46.6167,14.3,Austria
Wels,48.15,14.0167,Austria
Villach,46.6167,13.85,Austria
Sankt Polten,48.2,15.6167,Austria
Krems an der Donau,48.4167,15.6167,Austria
Dornbirn,47.4139,9.7444,Austria
Wiener Neustadt,47.8089,16.2325,Austria
Steyr,48.0333,14.4167,Austria
Bregenz,47.505,9.7492,Austria
Leonding,48.2667,14.25,Austria
Klosterneuburg,48.3042,16.3167,Austria
Baden,48.0075,16.2344,Austria
Wolfsberg,46.85,14.8333,Austria
Leoben,47.3817,15.0972,Austria
Traun,48.2217,14.2397,Austria
Lustenau,47.4297,9.6597,Austria
Amstetten,48.1167,14.8667,Austria
Kapfenberg,47.4333,15.2833,Austria
Hallein,47.6831,13.0969,Austria
Modling,48.0833,16.2667,Austria
Kufstein,47.5833,12.1667,Austria
Traiskirchen,48.0167,16.3,Austria
Schwechat,48.1411,16.4786,Austria
Braunau am Inn,48.2583,13.035,Austria
Hohenems,47.3667,9.6667,Austria
Stockerau,48.3833,16.2167,Austria
Saalfelden am Steinernen Meer,47.4269,12.8483,Austria
Ansfelden,48.2083,14.2889,Austria
Telfs,47.2833,11.0667,Austria
Bruck an der Mur,47.4167,15.2667,Austria
Spittal an der Drau,46.7833,13.4833,Austria
Perchtoldsdorf,48.1167,16.2667,Austria
Bludenz,47.1333,9.8167,Austria
Ternitz,47.7167,16.0333,Austria
Eisenstadt,47.85,16.5167,Austria
Feldkirchen,46.7167,14.1,Austria
Bad Ischl,47.7203,13.6333,Austria
Hall in Tirol,47.2833,11.5,Austria
Worgl,47.4833,12.0667,Austria
Schwaz,47.35,11.7,Austria
Marchtrenk,48.1917,14.1106,Austria
Hard,47.4667,9.6667,Austria
Feldbach,46.95,15.8833,Austria
Gmunden,47.9181,13.7994,Austria
Leibnitz,46.7831,15.545,Austria
Korneuburg,48.3453,16.3331,Austria
Neunkirchen,47.7333,16.0833,Austria
Knittelfeld,47.215,14.8294,Austria
Sankt Veit an der Glan,46.7667,14.3667,Austria
Vocklabruck,48.0086,13.6558,Austria
Mistelbach,48.5667,16.5667,Austria
Enns,48.2167,14.475,Austria
Lienz,46.8297,12.7697,Austria
Ried im Innkreis,48.21,13.4894,Austria
Brunn am Gebirge,48.1,16.2833,Austria
Rankweil,47.2667,9.65,Austria
Bad Voslau,47.9667,16.2167,Austria
Gross-Enzersdorf,48.2,16.55,Austria
Deutschlandsberg,46.8161,15.215,Austria
Hollabrunn,48.5667,16.1,Austria
Weiz,47.2169,15.6331,Austria
Gotzis,47.3331,9.6333,Austria
Ganserndorf,48.3406,16.7175,Austria
Waidhofen an der Ybbs,47.9667,14.7667,Austria
Sankt Johann im Pongau,47.35,13.2,Austria
Gerasdorf bei Wien,48.295,16.4675,Austria
Trofaiach,47.426,15.0067,Austria
Volkermarkt,46.6667,14.6333,Austria
Ebreichsdorf,47.9667,16.4,Austria
Gleisdorf,47.1039,15.7083,Austria
Zwettl,48.6033,15.1689,Austria
Bischofshofen,47.4172,13.2194,Austria
Imst,47.2394,10.7381,Austria
Lauterach,47.4772,9.7314,Austria
Strasshof an der Nordbahn,48.3194,16.6475,Austria
Sankt Andra,46.7667,14.8167,Austria
Koflach,47.0667,15.0833,Austria
Laakirchen,47.9828,13.8242,Austria
Altmunster,47.9014,13.7514,Austria
Zell am See,47.3167,12.8,Austria
Sankt Johann in Tirol,47.5225,12.4256,Austria
Purkersdorf,48.2092,16.1792,Austria
Judenburg,47.1725,14.6603,Austria
Wiener Neudorf,48.0833,16.3167,Austria
Voitsberg,47.0333,15.15,Austria
Sierning,48.0447,14.31,Austria
Sankt Valentin,48.1667,14.5333,Austria
Rum,47.2872,11.4581,Austria
Guntramsdorf,48.05,16.3167,Austria
Berndorf,47.9428,16.1036,Austria
Velden am Worthersee,46.6,14.0333,Austria
Attnang-Puchheim,48.0167,13.7197,Austria
Maria Enzersdorf,48.1,16.2833,Austria
Engerwitzdorf,48.3397,14.4256,Austria
Stainz,46.8833,15.2667,Austria
Deutsch-Wagram,48.3,16.5667,Austria
Furstenfeld,47.05,16.0833,Austria
Baku,40.3667,49.8352,Azerbaijan
Sumqayit,40.5961,49.67,Azerbaijan
Ganca,40.6828,46.3606,Azerbaijan
Mingacevir,40.77,47.0489,Azerbaijan
Xirdalan,40.4486,49.7564,Azerbaijan
Naxcivan,39.2089,45.4122,Azerbaijan
Satrovka,39.829,48.9478,Azerbaijan
Qaracuxur,40.3969,49.9733,Azerbaijan
Hovsan,40.3753,50.0839,Azerbaijan
Bakixanov,40.4217,49.9644,Azerbaijan
Sirvan,39.9323,48.9203,Azerbaijan
Saki,41.1919,47.1706,Azerbaijan
Yevlax,40.6172,47.15,Azerbaijan
Bina,40.45,50.0833,Azerbaijan
M.A. Rasulzada,40.4344,49.8336,Azerbaijan
Lankaran,38.7536,48.8511,Azerbaijan
Xankandi,39.8153,46.7519,Azerbaijan
Bilacari,40.4444,49.8057,Azerbaijan
Mastaga,40.5286,50.0103,Azerbaijan
Agcabadi,40.0489,47.4502,Azerbaijan
Samkir,40.8297,46.0189,Azerbaijan
Xacmaz,41.4681,48.8028,Azerbaijan
Samaxi,40.6339,48.6392,Azerbaijan
Barda,40.3831,47.1186,Azerbaijan
Quba,41.3611,48.5134,Azerbaijan
Goygol,40.5858,46.3189,Azerbaijan
Binaqadi,40.4758,49.8222,Azerbaijan
Goycay,40.6553,47.7389,Azerbaijan
Lokbatan,40.3272,49.73,Azerbaijan
Qazax,41.0933,45.3661,Azerbaijan
Mardakan,40.4918,50.1429,Azerbaijan
Buzovna,40.5167,50.1167,Azerbaijan
Imisli,39.8697,48.06,Azerbaijan
Zaqatala,41.6336,46.6433,Azerbaijan
Sabirabad,40.0053,48.4719,Azerbaijan
Salyan,39.5961,48.9847,Azerbaijan
Agdas,40.65,47.4833,Azerbaijan
Amircan,40.4264,49.9836,Azerbaijan
Haciqabul,40.0387,48.9429,Azerbaijan
Calilabad,39.2042,48.4958,Azerbaijan
Kesla,40.3978,49.8986,Azerbaijan
Zabrat,40.4775,49.9417,Azerbaijan
Sabuncu,40.4425,49.9481,Azerbaijan
Sahil,40.2239,49.576,Azerbaijan
Haci Zeynalabdin,40.6242,49.5575,Azerbaijan
Ismayilli,40.7847,48.1514,Azerbaijan
Agsu,40.5703,48.4009,Azerbaijan
Agstafa,41.1189,45.4539,Azerbaijan
Bilasuvar,39.4553,48.5458,Azerbaijan
Siyazan,41.0783,49.1061,Azerbaijan
Saatli,39.9311,48.3697,Azerbaijan
Bulbula,40.4364,49.9731,Azerbaijan
Hindarx,40.0675,47.2058,Azerbaijan
Astara,38.44,48.875,Azerbaijan
Qusar,41.4219,48.4214,Azerbaijan
Yeni Suraxani,40.4303,50.036,Azerbaijan
Qazyan,40.4302,47.6779,Azerbaijan
Arkivan,39.0171,48.6431,Azerbaijan
Kurdamir,40.3383,48.1608,Azerbaijan
Suvalan,40.4843,50.184,Azerbaijan
Masalli,39.0324,48.6722,Azerbaijan
Qobustan,40.0824,49.412,Azerbaijan
Ucar,40.5183,47.6542,Azerbaijan
Neftcala,39.3791,49.2486,Azerbaijan
Nehram,39.116,45.4617,Azerbaijan
Pirallahi,40.4708,50.3217,Azerbaijan
Tovuz,40.9924,45.6167,Azerbaijan
Bas Goynuk,41.3258,47.1136,Azerbaijan
Quzanli,40.1591,47.1653,Azerbaijan
Corat,40.5739,49.7036,Azerbaijan
Qazmalar,40.9814,47.8458,Azerbaijan
Alat,39.9483,49.4067,Azerbaijan
Tartar,40.3353,46.9303,Azerbaijan
Culfa,38.9558,45.6308,Azerbaijan
Beylaqan,39.7692,47.6156,Azerbaijan
Badamdar,40.3394,49.8039,Azerbaijan
Balaxani,40.4625,49.9189,Azerbaijan
Liman,38.8733,48.8139,Azerbaijan
Qax,41.4194,46.9181,Azerbaijan
Zira,40.3661,50.292,Azerbaijan
Ahmadli,40.3839,49.9475,Azerbaijan
Xudat,41.6339,48.6772,Azerbaijan
Aliabad,41.4829,46.6348,Azerbaijan
Saray,40.533,49.7168,Azerbaijan
Daskasan,40.5209,46.0814,Azerbaijan
Ordubad,38.9047,46.0231,Azerbaijan
Samux,40.7642,46.4083,Azerbaijan
Qovlar,40.9419,45.7358,Azerbaijan
Turkan,40.3646,50.2208,Azerbaijan
Naftalan,40.5058,46.8192,Azerbaijan
Goytapa,39.1167,48.5953,Azerbaijan
Boladi,38.8904,48.7658,Azerbaijan
Asagi Ayibli,40.9347,45.8261,Azerbaijan
Vandam,40.946,47.9436,Azerbaijan
Aliabad,39.2286,45.3982,Azerbaijan
Sadarak,39.7143,44.8846,Azerbaijan
Gadabay,40.5706,45.8123,Azerbaijan
Qizilhacili,40.5772,46.8578,Azerbaijan
Asagi Quscu,40.9571,45.6804,Azerbaijan
Zardab,40.2199,47.71,Azerbaijan
Yardimli,38.9078,48.2406,Azerbaijan
Goranboy,40.61,46.7872,Azerbaijan
Lerik,38.7753,48.4153,Azerbaijan
Oguz,41.0708,47.4583,Azerbaijan
Cabrayil,39.4,47.0261,Azerbaijan
Xocavand,39.795,47.1117,Azerbaijan
Babak,39.1519,45.4417,Azerbaijan
Susa,39.7602,46.7504,Azerbaijan
Qivraq,39.3994,45.1151,Azerbaijan
Qobustan,40.5336,48.9282,Azerbaijan
Agdam,39.9833,46.9167,Azerbaijan
Fuzuli,39.6003,47.1431,Azerbaijan
Sahbuz,39.4073,45.5733,Azerbaijan
Lacin,39.6408,46.5469,Azerbaijan
Heydarabad,39.7229,44.8485,Azerbaijan
Balakan,41.7186,46.4165,Azerbaijan
Xizi,40.9111,49.0694,Azerbaijan
Xocali,39.9131,46.7903,Azerbaijan
Agdam,40.9053,45.5564,Azerbaijan
Qubadli,39.3439,46.5797,Azerbaijan
Kalbacar,40.1098,46.0445,Azerbaijan
Davaci,41.2012,48.9871,Azerbaijan
Sarur,39.5544,44.9826,Azerbaijan
Qabala,40.9825,47.8491,Azerbaijan
Nassau,25.0442,-77.3503,"Bahamas, The"
Lucaya,26.5117,-78.6431,"Bahamas, The"
Freeport City,26.5286,-78.6967,"Bahamas, The"
West End,26.6867,-78.975,"Bahamas, The"
Manama,26.2233,50.5875,Bahrain
Al Muharraq,26.25,50.6167,Bahrain
Madinat Hamad,26.1128,50.5139,Bahrain
Jidd Hafs,26.219,50.538,Bahrain
Madinat `Isa,26.1736,50.5478,Bahrain
Sitrah,26.12,50.65,Bahrain
Al Hamalah,26.1497,50.4653,Bahrain
Ad Diraz,26.2186,50.4756,Bahrain
Al Malikiyah,26.1008,50.4878,Bahrain
Karranah,26.2306,50.5108,Bahrain
Dhaka,23.7289,90.3944,Bangladesh
Gazipura,23.9234,90.3959,Bangladesh
Chattogram,22.335,91.8325,Bangladesh
Rangapukur,25.5206,89.2147,Bangladesh
Narayanganj,23.6167,90.5,Bangladesh
Khulna,22.8167,89.55,Bangladesh
Mymensingh,24.7504,90.38,Bangladesh
Sylhet,24.9,91.8667,Bangladesh
Sirajganj,24.45,89.7167,Bangladesh
Rajshahi,24.3667,88.6,Bangladesh
Chauddagram,23.2244,91.3731,Bangladesh
Kushtia,23.9,89.12,Bangladesh
Barura,23.3683,91.0484,Bangladesh
Bogra,24.851,89.3711,Bangladesh
Tangail,24.25,89.92,Bangladesh
Savar,23.8482,90.2577,Bangladesh
Tungi,23.8915,90.4023,Bangladesh
Comilla,23.45,91.2,Bangladesh
Rangpur,25.75,89.2444,Bangladesh
Brahmanbaria,23.9723,91.1099,Bangladesh
Feni,23.015,91.3967,Bangladesh
Siddhirganj,23.6913,90.5149,Bangladesh
Jhenida,23.5425,89.1749,Bangladesh
Companiganj,22.873,91.2782,Bangladesh
Jessore,23.1704,89.2,Bangladesh
Banchpar,23.2081,90.7979,Bangladesh
Nazipur,25.0455,88.7609,Bangladesh
Barishal,22.7,90.3667,Bangladesh
Chuadanga,23.6418,88.8577,Bangladesh
Cox's Bazar,21.4539,91.9677,Bangladesh
Dinajpur,25.63,88.65,Bangladesh
Brahmanpara,23.6165,91.0679,Bangladesh
Pabna,24.0004,89.25,Bangladesh
Narsingdi,23.9,90.7167,Bangladesh
Jamalpur,24.9004,89.95,Bangladesh
Naogaon,24.8118,88.947,Bangladesh
Bhandaria,22.489,90.0627,Bangladesh
Nawabganj,24.6,88.2667,Bangladesh
Sripur,24.2,90.4731,Bangladesh
Maijdi,22.8667,91.1,Bangladesh
Saidpur,25.7833,88.9,Bangladesh
Faridpur,23.5986,89.8353,Bangladesh
Fulgazi,23.1461,91.4409,Bangladesh
Satkhira,22.7082,89.0718,Bangladesh
Netrakona,24.8835,90.729,Bangladesh
Goalundo Ghat,23.7241,89.765,Bangladesh
Bhola,22.6833,90.65,Bangladesh
Habiganj,24.3804,91.413,Bangladesh
Lakshmipur,22.9443,90.8301,Bangladesh
Manikganj,23.8614,90.0003,Bangladesh
Kaukhali,22.6333,90.0667,Bangladesh
Patuakhali,22.2591,90.3184,Bangladesh
Panchari Bazar,23.2867,91.9027,Bangladesh
Nakhyaungcharipara,21.4281,92.1779,Bangladesh
Lalmanirhat,25.9172,89.4459,Bangladesh
Pirojpur,22.5796,89.9752,Bangladesh
Arankhola,24.6928,90.0806,Bangladesh
Gaibandha,25.329,89.5415,Bangladesh
Raharpur,24.8194,88.325,Bangladesh
Elenga,24.3386,89.9219,Bangladesh
Jalakati,22.6409,90.1988,Bangladesh
Sherpur,24.6765,89.4159,Bangladesh
Gopalganj,23,89.8167,Bangladesh
Sunamganj,25.0667,91.4,Bangladesh
Gopalpur,24.5601,89.9218,Bangladesh
Muktagacha,24.7668,90.2573,Bangladesh
Chhagalnaiya,23.0248,91.5109,Bangladesh
Bharella,23.5653,91.0889,Bangladesh
Char Fasson,22.1865,90.761,Bangladesh
Maulavi Bazar,24.4889,91.7708,Bangladesh
Dohazari,22.1639,92.0733,Bangladesh
Kalihati,24.3833,89.9833,Bangladesh
Sitakund,22.6216,91.6594,Bangladesh
Benapol,23.0419,88.8956,Bangladesh
Kishmat Dhanbari,24.6167,90.025,Bangladesh
Chandanais,22.2113,92.0111,Bangladesh
Hatibanda,24.2155,90.16,Bangladesh
Daganbhuiya,22.9366,91.3036,Bangladesh
Barguna,22.1567,90.1176,Bangladesh
Nagdha Simla,24.6071,89.9151,Bangladesh
Lohagara,22.0112,92.1009,Bangladesh
Nalchiti,22.637,90.2719,Bangladesh
Majidpur,23.5797,90.7684,Bangladesh
Parsuram,23.2114,91.4686,Bangladesh
Mathba,22.2862,89.9588,Bangladesh
Mirzapur,24.1029,90.0984,Bangladesh
Daulatkhan,22.5998,90.7414,Bangladesh
Duptiair,23.9925,89.7973,Bangladesh
Lakshmicharipara,22.7937,91.916,Bangladesh
Phulpur,24.9487,90.2495,Bangladesh
Sakhipur,24.3199,90.1694,Bangladesh
Mundamala,24.6081,88.4728,Bangladesh
Amtali,22.1189,90.221,Bangladesh
Shahbazpur,24.0517,91.1733,Bangladesh
Sonagazi,22.8518,91.3916,Bangladesh
Jagatpur,23.6075,90.766,Bangladesh
Harinakunda,23.65,89.0333,Bangladesh
Latifpur,24.1283,90.1398,Bangladesh
Baisari,22.7959,90.1259,Bangladesh
Dhubaria,24.0104,89.8404,Bangladesh
Faradabad,23.7445,90.8772,Bangladesh
Fatikchari,22.6877,91.7812,Bangladesh
Latifpur,22.4067,91.7464,Bangladesh
Saidpur,25.8004,89,Bangladesh
Bridgetown,13.0969,-59.6131,Barbados
Minsk,53.9006,27.5586,Belarus
Homyel',52.4453,30.9842,Belarus
Hrodna,53.6667,23.8333,Belarus
Vitsyebsk,55.1917,30.2056,Belarus
Mahilyow,53.9167,30.35,Belarus
Brest,52.1347,23.6569,Belarus
Babruysk,53.15,29.2333,Belarus
Baranavichy,53.1333,26.0167,Belarus
Pinsk,52.1153,26.1031,Belarus
Mazyr,52.05,29.25,Belarus
Lida,53.8956,25.2958,Belarus
Orsha,54.5092,30.4258,Belarus
Salihorsk,52.8,27.5333,Belarus
Navapolatsk,55.5333,28.65,Belarus
Maladzyechna,54.3208,26.8572,Belarus
Polatsk,55.4833,28.8,Belarus
Zhlobin,52.9,30.0333,Belarus
Rechytsa,54.3667,30.4,Belarus
Svyetlahorsk,52.6333,29.7333,Belarus
Slutsk,53.0333,27.5667,Belarus
Kobryn,52.2167,24.3667,Belarus
Slonim,53.0833,25.3167,Belarus
Vawkavysk,53.1667,24.4667,Belarus
Kalinkavichy,52.125,29.3333,Belarus
Smarhon,54.4836,26.4,Belarus
Rahachow,53.1,30.05,Belarus
Dzyarzhynsk,53.6833,27.1333,Belarus
Asipovichy,53.2933,28.4756,Belarus
Horki,54.2667,30.9833,Belarus
Byaroza,52.55,24.9667,Belarus
Navahrudak,53.5833,25.8167,Belarus
Vilyeyka,54.4972,26.9111,Belarus
Luninyets,52.25,26.8,Belarus
Krychaw,53.7194,31.7139,Belarus
Horad Smalyavichy,54.1,28.0667,Belarus
Ivatsevichy,52.7167,25.3333,Belarus
Mar''ina Horka,53.5072,28.1522,Belarus
Pruzhany,52.5567,24.4644,Belarus
Pastavy,55.1167,26.8333,Belarus
Fanipal',53.75,27.3333,Belarus
Dobrush,52.4167,31.3167,Belarus
Hlybokaye,55.1333,27.6833,Belarus
Stowbtsy,53.4833,26.7333,Belarus
Zaslawye,54.0083,27.2847,Belarus
Lyepyel,54.875,28.6944,Belarus
Ashmyany,54.425,25.9375,Belarus
Bykhaw,53.5167,30.25,Belarus
Ivanava,52.1333,25.55,Belarus
Nyasvizh,53.2167,26.6667,Belarus
Zhytkavichy,52.2333,27.8667,Belarus
Lahoysk,54.2,27.85,Belarus
Shchuchyn,53.6167,24.7333,Belarus
Astravyets,54.6136,25.9553,Belarus
Klimavichy,53.6167,31.95,Belarus
Kastsyukovichy,53.3333,32.05,Belarus
Shklow,54.2236,30.2864,Belarus
Drahichyn,52.1833,25.15,Belarus
Masty,53.417,24.55,Belarus
Zhabinka,52.2006,24.0233,Belarus
Stolin,51.8833,26.85,Belarus
Hantsavichy,52.75,26.4333,Belarus
Khoyniki,51.8892,29.9644,Belarus
Malaryta,51.7833,24.0833,Belarus
Lyelchytsy,51.7894,28.3214,Belarus
Mikashevichy,52.2203,27.4736,Belarus
Novalukoml',54.6569,29.15,Belarus
Haradok,55.4667,30,Belarus
Byerazino,53.8333,28.9833,Belarus
Lyuban,52.7819,28.0525,Belarus
Klyetsk,53.0636,26.6372,Belarus
Byelaazyorsk,52.45,25.1667,Belarus
Staryya Darohi,53.0394,28.265,Belarus
Uzda,53.4661,27.2244,Belarus
Lyakhavichy,53.0333,26.2667,Belarus
Machulishchy,53.7814,27.5958,Belarus
Chervyen,53.7078,28.4322,Belarus
Pyetrykaw,52.1333,28.5,Belarus
Baran,54.4833,30.3333,Belarus
Mstsislaw,54.0167,31.7167,Belarus
Valozhyn,54.0833,26.5167,Belarus
Kapyl,53.15,27.0917,Belarus
Chavusy,53.8075,30.9714,Belarus
Skidal',53.5833,24.25,Belarus
Byalynichy,53.9956,29.7094,Belarus
Talachyn,54.4167,29.7,Belarus
Byarozawka,53.7167,25.5,Belarus
Braslaw,55.6391,27.0318,Belarus
Chachersk,52.9161,30.9161,Belarus
Yelsk,51.8167,29.15,Belarus
Vyetka,52.5667,31.1833,Belarus
Buda-Kashalyova,52.7167,30.5667,Belarus
Brussels,50.8467,4.3525,Belgium
Antwerp,51.2178,4.4003,Belgium
Gent,51.0536,3.7253,Belgium
Charleroi,50.4167,4.4442,Belgium
Liege,50.6397,5.5706,Belgium
Schaarbeek,50.8675,4.3736,Belgium
Anderlecht,50.8333,4.3333,Belgium
Bruges,51.2089,3.2242,Belgium
Namur,50.4667,4.8667,Belgium
Moortebeek,50.8547,4.3386,Belgium
Mons,50.4547,3.9525,Belgium
Aalst,50.9383,4.0392,Belgium
Mechelen,51.0281,4.4803,Belgium
Deurne,51.2247,4.4625,Belgium
La Louviere,50.4667,4.1833,Belgium
Sint-Niklaas,51.1667,4.1333,Belgium
Kortrijk,50.8275,3.2658,Belgium
Hasselt,50.9304,5.3383,Belgium
Ostend,51.2258,2.9194,Belgium
Tournai,50.6056,3.3881,Belgium
Genk,50.9653,5.5006,Belgium
Roeselare,50.9333,3.1167,Belgium
Seraing,50.5986,5.5122,Belgium
Laeken,50.8778,4.3558,Belgium
Mouscron,50.7333,3.2167,Belgium
Forest,50.8131,4.3247,Belgium
Verviers,50.5835,5.8641,Belgium
Jette,50.8667,4.3333,Belgium
Beveren,51.2,4.25,Belgium
Etterbeek,50.8333,4.3833,Belgium
Beringen,51.0507,5.2216,Belgium
Borgerhout,51.2167,4.4333,Belgium
Dendermonde,51.0333,4.1,Belgium
Merksem,51.2428,4.4414,Belgium
Deinze,50.9833,3.5333,Belgium
Turnhout,51.3231,4.9483,Belgium
Vilvoorde,50.9333,4.4167,Belgium
Berchem,51.2,4.4167,Belgium
Heist-op-den-Berg,51.0758,4.7286,Belgium
Lokeren,51.1,3.9833,Belgium
Evere,50.8667,4.4,Belgium
Dilbeek,50.845,4.265,Belgium
Hoboken,51.1667,4.3667,Belgium
Geel,51.1661,4.9919,Belgium
Sint-Truiden,50.8156,5.1868,Belgium
Herstal,50.6644,5.63,Belgium
Braine-l'Alleud,50.6833,4.3667,Belgium
Ninove,50.8333,4.0167,Belgium
Halle,50.7361,4.2372,Belgium
Waregem,50.8833,3.4167,Belgium
Wilrijk,51.1667,4.3833,Belgium
Brasschaat,51.2914,4.495,Belgium
Mechelen-aan-de-Maas,50.9967,5.7025,Belgium
Grimbergen,50.9333,4.3833,Belgium
Mol,51.1842,5.1156,Belgium
Lierre,51.1311,4.5697,Belgium
Tienen,50.8075,4.9372,Belgium
Chatelet,50.4039,4.5253,Belgium
Evergem,51.1167,3.7,Belgium
Zaventem,50.8667,4.4667,Belgium
Ieper,50.8508,2.885,Belgium
Schoten,51.25,4.5,Belgium
Wavre,50.7147,4.6107,Belgium
Lommel,51.2317,5.311,Belgium
Sint-Pieters-Leeuw,50.7833,4.25,Belgium
Menen,50.8,3.1167,Belgium
Binche,50.4103,4.1652,Belgium
Geraardsbergen,50.7667,3.8667,Belgium
Knokke-Heist,51.3333,3.2833,Belgium
Asse,50.9,4.2,Belgium
Bilzen,50.873,5.5163,Belgium
Sint-Amandsberg,51.0539,3.7492,Belgium
Oudenaarde,50.85,3.6,Belgium
Wevelgem,50.8,3.1667,Belgium
Courcelles,50.4667,4.3667,Belgium
Tongeren,50.7807,5.4623,Belgium
Arlon,49.6836,5.8167,Belgium
Kessel-Lo,50.9,4.75,Belgium
Waterloo,50.7175,4.3979,Belgium
Aarschot,50.9875,4.8333,Belgium
Temse,51.1167,4.2,Belgium
Brecht,51.3494,4.6394,Belgium
Ath,50.6167,3.7667,Belgium
Izegem,50.9167,3.2,Belgium
Nivelles,50.5833,4.3167,Belgium
Herentals,51.1767,4.8364,Belgium
Ans,50.6625,5.52,Belgium
Harelbeke,50.85,3.3,Belgium
Soignies,50.5667,4.0667,Belgium
Andenne,50.4833,5.1,Belgium
Sint-Joost-ten-Node,50.85,4.3833,Belgium
Kapellen,51.3167,4.4333,Belgium
Ronse,50.75,3.6,Belgium
Zottegem,50.8667,3.8,Belgium
Willebroek,51.0667,4.3667,Belgium
Flemalle-Haute,50.6011,5.4628,Belgium
Mortsel,51.1667,4.4667,Belgium
Gembloux,50.561,4.697,Belgium
Tubize,50.693,4.2047,Belgium
Lanaken,50.8925,5.6497,Belgium
Wetteren,51,3.8833,Belgium
Oupeye,50.71,5.6449,Belgium
Ganshoren,50.8667,4.3167,Belgium
Maaseik,51.1019,5.7856,Belgium
Overijse,50.7751,4.5372,Belgium
Beersel,50.7667,4.3,Belgium
Westerlo,51.0897,4.9153,Belgium
Hamme,51.0833,4.1333,Belgium
Merelbeke,51,3.75,Belgium
Zwevegem,50.8,3.3333,Belgium
Saint-Nicolas,50.6302,5.5373,Belgium
Montegnee,50.6333,5.5333,Belgium
Diest,50.9847,5.0514,Belgium
Maldegem,51.2,3.4333,Belgium
Oostkamp,51.15,3.2333,Belgium
Heverlee,50.86,4.69,Belgium
Saint-Ghislain,50.45,3.8167,Belgium
Zemst,50.9722,4.4222,Belgium
Manage,50.5,4.2333,Belgium
Scherpenheuvel,50.9797,4.9764,Belgium
Nijlen,51.1611,4.6703,Belgium
Marcinelle,50.3992,4.4469,Belgium
Ekeren,51.2833,4.4167,Belgium
Balen,51.1708,5.1697,Belgium
Zedelgem,51.1333,3.1333,Belgium
Fleurus,50.4843,4.5518,Belgium
Rixensart,50.7167,4.5333,Belgium
Lochristi,51.1,3.8333,Belgium
Braine-le-Comte,50.6,4.1333,Belgium
Edegem,51.15,4.45,Belgium
Tervuren,50.8167,4.5,Belgium
Koekelberg,50.8667,4.3333,Belgium
Koksijde,51.1,2.65,Belgium
Frameries,50.4088,3.8906,Belgium
Zoersel,51.2675,4.7126,Belgium
Herent,50.9081,4.6706,Belgium
Hoogstraten,51.4008,4.7611,Belgium
Bornem,51.1,4.2333,Belgium
Huy,50.5201,5.2375,Belgium
Zonhoven,50.9914,5.3709,Belgium
Kontich,51.1333,4.45,Belgium
Zele,51.0667,4.0333,Belgium
Chaudfontaine,50.5818,5.634,Belgium
Eeklo,51.1833,3.55,Belgium
Sint-Katelijne-Waver,51.0667,4.5333,Belgium
Colfontaine,50.4138,3.8555,Belgium
Wuustwezel,51.3922,4.5942,Belgium
Torhout,51.05,3.1,Belgium
Tielt,51,3.3167,Belgium
Blankenberge,51.3,3.1167,Belgium
Kortenberg,50.8865,4.5412,Belgium
Denderleeuw,50.8833,4.0667,Belgium
Boussu,50.4331,3.7961,Belgium
Sint-Andries,51.1972,3.1803,Belgium
Poperinge,50.85,2.7333,Belgium
Assebroek,51.1964,3.2536,Belgium
Schilde,51.2389,4.5815,Belgium
Eupen,50.6333,6.0333,Belgium
Middelkerke,51.1833,2.8167,Belgium
Sint-Gillis-Waas,51.2167,4.1167,Belgium
Lebbeke,51,4.1167,Belgium
Ranst,51.1896,4.5634,Belgium
Meise,50.9333,4.3333,Belgium
Essen,51.4667,4.4667,Belgium
Diepenbeek,50.9072,5.4175,Belgium
Wervik,50.7833,3.0333,Belgium
Morlanwelz-Mariemont,50.45,4.2333,Belgium
Quaregnon,50.4417,3.867,Belgium
Zwijndrecht,51.2167,4.3333,Belgium
Kasterlee,51.2407,4.9669,Belgium
Kalmthout,51.3833,4.4667,Belgium
Lede,50.9667,3.9833,Belgium
Londerzeel,51,4.3,Belgium
Boom,51.0833,4.3667,Belgium
Lessines,50.7167,3.8333,Belgium
Stabroek,51.3333,4.3667,Belgium
Tessenderlo,51.0679,5.0891,Belgium
Haaltert,50.9,4,Belgium
Walcourt,50.2534,4.4347,Belgium
Stekene,51.2,4.0333,Belgium
Sint-Genesius-Rode,50.75,4.35,Belgium
Beerse,51.3191,4.8555,Belgium
Destelbergen,51.05,3.8,Belgium
Bredene,51.2333,2.9667,Belgium
Fontaine-l'Eveque,50.4092,4.3242,Belgium
Vise,50.737,5.6958,Belgium
Herzele,50.8833,3.8833,Belgium
Duffel,51.0957,4.5056,Belgium
Herve,50.6394,5.7942,Belgium
Neder-Over-Heembeek,50.9,4.3833,Belgium
Putte,51.0566,4.6292,Belgium
Marche-en-Famenne,50.2266,5.3437,Belgium
Puurs,51.0761,4.2803,Belgium
Pont-a-Celles,50.5,4.35,Belgium
Mariakerke,51.0728,3.6761,Belgium
Neerpelt,51.2272,5.4317,Belgium
Peruwelz,50.5167,3.5833,Belgium
Wondelgem,51.0889,3.7131,Belgium
Aubange,49.5667,5.805,Belgium
Soumagne,50.6124,5.7469,Belgium
Diksmuide,51.0333,2.865,Belgium
Dour,50.3979,3.7807,Belgium
Rotselaar,50.9511,4.7108,Belgium
Riemst,50.8089,5.6019,Belgium
Kruibeke,51.1667,4.3,Belgium
Lille,51.2383,4.8242,Belgium
Ledeberg,51.0375,3.7425,Belgium
Fleron,50.6167,5.6833,Belgium
Ciney,50.2963,5.1007,Belgium
Hannut,50.672,5.0781,Belgium
Peer,51.133,5.453,Belgium
Wemmel,50.9078,4.3067,Belgium
Bree,51.1414,5.598,Belgium
Merchtem,50.9667,4.2333,Belgium
Eghezee,50.5925,4.9104,Belgium
Landen,50.7547,5.0814,Belgium
Gentbrugge,51.0314,3.7642,Belgium
Bastogne,50.0042,5.72,Belgium
Sint-Kruis,51.2139,3.2503,Belgium
Zulte,50.9167,3.4333,Belgium
Beernem,51.1333,3.3333,Belgium
Leopoldsburg,51.1177,5.2541,Belgium
Bissegem,50.8167,3.2167,Belgium
Ternat,50.8667,4.1833,Belgium
Overpelt,51.2111,5.4256,Belgium
Machelen,50.9167,4.4333,Belgium
Dison,50.6098,5.8543,Belgium
Genappe,50.6,4.45,Belgium
Waremme,50.6967,5.2569,Belgium
Rumst,51.0833,4.4167,Belgium
Bonheiden,51.0224,4.5479,Belgium
Chapelle-lez-Herlaimont,50.4667,4.2833,Belgium
Ravels,51.3708,4.9926,Belgium
Berlare,51.025,4.0025,Belgium
Tremelo,50.9918,4.7039,Belgium
Lummen,50.9862,5.1927,Belgium
Thuin,50.3398,4.2874,Belgium
Sprimont,50.5053,5.6618,Belgium
Anzegem,50.8333,3.4667,Belgium
Herselt,51.0537,4.8828,Belgium
Buggenhout,51,4.2,Belgium
Haacht,50.977,4.6384,Belgium
Aartselaar,51.1333,4.3833,Belgium
Lubbeek,50.8817,4.8414,Belgium
Opwijk,50.9667,4.1833,Belgium
Amay,50.5478,5.3192,Belgium
Wingene,51.05,3.2667,Belgium
Assenede,51.2333,3.75,Belgium
Jodoigne,50.7276,4.8723,Belgium
Oostakker,51.1003,3.7633,Belgium
Beloeil,50.5333,3.7167,Belgium
Wezembeek-Oppem,50.8442,4.4872,Belgium
Oud-Turnhout,51.318,4.9823,Belgium
Ichtegem,51.0928,3.0106,Belgium
Jabbeke,51.15,3.2333,Belgium
Couvin,50.0519,4.4961,Belgium
Enghien,50.6956,4.0411,Belgium
Kraainem,50.8667,4.4667,Belgium
Wanze,50.5353,5.2133,Belgium
Oosterzele,50.95,3.8,Belgium
Dinant,50.26,4.9101,Belgium
Boechout,51.1594,4.4923,Belgium
Grez-Doiceau,50.7333,4.7,Belgium
Kuurne,50.85,3.2833,Belgium
Arendonk,51.3226,5.0845,Belgium
Blegny,50.6667,5.7333,Belgium
Liedekerke,50.8667,4.0833,Belgium
Bocholt,51.1729,5.5792,Belgium
Drongen,51.0503,3.6628,Belgium
Mettet,50.3211,4.659,Belgium
Zandhoven,51.215,4.6608,Belgium
Sint-Gillis-bij-Dendermonde,51.0189,4.1058,Belgium
Wommelgem,51.2031,4.5227,Belgium
Esneux,50.5333,5.5667,Belgium
Gavere,50.9333,3.6667,Belgium
Keerbergen,51.0031,4.6311,Belgium
Zelzate,51.2,3.8167,Belgium
Herk-de-Stad,50.9406,5.1672,Belgium
Gerpinnes,50.3369,4.5283,Belgium
Malmedy,50.4261,6.0303,Belgium
De Haan,51.2667,3.0333,Belgium
Kortemark,51.0333,3.0333,Belgium
Olen,51.1439,4.8597,Belgium
Rochefort,50.159,5.2231,Belgium
Laarne,51.0167,3.85,Belgium
Zonnebeke,50.8667,2.9833,Belgium
Sint-Michiels,51.1886,3.2117,Belgium
Aywaille,50.4724,5.6734,Belgium
Boortmeerbeek,50.9817,4.5718,Belgium
Veurne,51.0667,2.65,Belgium
Anderlues,50.4073,4.2698,Belgium
Kinrooi,51.1453,5.7409,Belgium
Profondeville,50.3777,4.8692,Belgium
Nevele,51.0333,3.55,Belgium
Gistel,51.15,2.9667,Belgium
Steenokkerzeel,50.9188,4.5114,Belgium
Paal,51.0392,5.1728,Belgium
Theux,50.5352,5.8132,Belgium
Beyne-Heusay,50.6167,5.65,Belgium
Rijkevorsel,51.3489,4.7597,Belgium
Kampenhout,50.9413,4.5496,Belgium
Bernissart,50.4833,3.65,Belgium
Deerlijk,50.85,3.35,Belgium
Alken,50.8757,5.3079,Belgium
Chaumont-Gistoux,50.6839,4.6947,Belgium
Berlaar,51.1179,4.658,Belgium
Durbuy,50.3523,5.4568,Belgium
Hemiksem,51.15,4.35,Belgium
Wichelen,51,3.9667,Belgium
Nazareth,50.9667,3.6,Belgium
Melle,51,3.8,Belgium
Nieuwpoort,51.1167,2.75,Belgium
Strombeek-Bever,50.91,4.35,Belgium
Florennes,50.2514,4.6044,Belgium
Staden,50.9833,3.0167,Belgium
Virton,49.5677,5.5323,Belgium
Seneffe,50.5167,4.25,Belgium
Farciennes,50.4314,4.5475,Belgium
Retie,51.2658,5.0828,Belgium
Hoeilaart,50.7667,4.4667,Belgium
Grobbendonk,51.1919,4.7386,Belgium
Vosselaar,51.3081,4.8883,Belgium
Ecaussinnes-Lalaing,50.5667,4.1833,Belgium
De Panne,51.1,2.5833,Belgium
Oud-Heverlee,50.8371,4.6639,Belgium
Melsele,51.2209,4.2815,Belgium
Moorslede,50.8833,3.0667,Belgium
La Calamine,50.7161,6.0142,Belgium
De Pinte,51,3.65,Belgium
Damme,51.25,3.2667,Belgium
Borsbeek,51.1932,4.4879,Belgium
Ingelmunster,50.9167,3.25,Belgium
Meulebeke,50.95,3.2833,Belgium
Waasmunster,51.1097,4.0847,Belgium
Villers-la-Ville,50.5833,4.5333,Belgium
Louvain-la-Neuve,50.6696,4.6112,Belgium
Raeren,50.6833,6.1167,Belgium
Borgloon,50.8022,5.3433,Belgium
Niel,51.1167,4.3333,Belgium
Heule,50.8333,3.2333,Belgium
Ertvelde,51.1783,3.7447,Belgium
Court-Saint-Etienne,50.6333,4.5667,Belgium
Hulshout,51.075,4.7901,Belgium
Braine-le-Chateau,50.6833,4.2667,Belgium
Estaimpuis,50.7,3.2667,Belgium
Jurbise,50.5333,3.9333,Belgium
Opglabbeek,51.0434,5.5835,Belgium
Plombieres,50.7372,5.9596,Belgium
Spa,50.4924,5.8648,Belgium
Meerhout,51.132,5.0773,Belgium
Sint-Lievens-Houtem,50.9167,3.8667,Belgium
Montignies-le-Tilleul,50.3794,4.379,Belgium
Avelgem,50.7667,3.4333,Belgium
Begijnendijk,51.0191,4.7831,Belgium
Houthulst,50.9833,2.95,Belgium
Bierbeek,50.8276,4.7585,Belgium
Cuesmes,50.4362,3.9207,Belgium
Bertem,50.8671,4.6361,Belgium
Hooglede,50.9833,3.0833,Belgium
Erquelinnes,50.3099,4.1214,Belgium
Welkenraedt,50.6606,5.9714,Belgium
Holsbeek,50.9208,4.7569,Belgium
Wilsele,50.8945,4.6982,Belgium
Huldenberg,50.7895,4.585,Belgium
Chimay,50.0479,4.3173,Belgium
Pepinster,50.5662,5.8038,Belgium
Oudenburg,51.1833,3,Belgium
Ledegem,50.85,3.1167,Belgium
Wijnegem,51.2272,4.52,Belgium
Lovendegem,51.1,3.6,Belgium
Hoeselt,50.85,5.4833,Belgium
Saint-Vith,50.2797,6.1275,Belgium
Dessel,51.2396,5.1131,Belgium
Wielsbeke,50.9,3.3667,Belgium
Halen,50.9481,5.1144,Belgium
Kapelle-op-den-Bos,51.0167,4.3667,Belgium
Awans,50.6669,5.4633,Belgium
Perwez,50.6241,4.815,Belgium
Juprelle,50.7101,5.5304,Belgium
Gooik,50.8,4.1167,Belgium
Philippeville,50.1964,4.5436,Belgium
La Bruyere,50.5,4.8,Belgium
Roux,50.4412,4.3926,Belgium
Yvoir,50.3264,4.8782,Belgium
Beauraing,50.1101,4.9564,Belgium
Herenthout,51.1395,4.7559,Belgium
Sint-Martens-Lennik,50.8,4.15,Belgium
Ardooie,50.9667,3.1833,Belgium
Bassenge,50.7583,5.6094,Belgium
Lichtervelde,51.0333,3.1333,Belgium
Koekelare,51.0833,2.9667,Belgium
Bertrix,49.8555,5.2566,Belgium
Galmaarden,50.75,3.99,Belgium
Heusden,51.0281,3.8,Belgium
Sint-Job-in-'t-Goor,51.3017,4.5691,Belgium
Lint,51.1275,4.4962,Belgium
Jalhay,50.5572,5.9642,Belgium
Merksplas,51.358,4.8634,Belgium
Lint,51.1167,4.4833,Belgium
Belize City,17.4986,-88.1886,Belize
San Ignacio,17.1588,-89.0696,Belize
Orange Walk,18.075,-88.5583,Belize
Corozal,18.4,-88.4,Belize
San Pedro,17.9214,-87.9611,Belize
Dangriga,16.9667,-88.2167,Belize
Punta Gorda,16.1,-88.8,Belize
Belmopan,17.2522,-88.7639,Belize
Cotonou,6.3667,2.4333,Benin
Abomey-Calavi,6.4486,2.3556,Benin
Godome,6.3667,2.35,Benin
Banikoara,11.3,2.4333,Benin
Djougou,9.7,1.6667,Benin
Tchaourou,8.8833,2.6,Benin
Parakou,9.35,2.6167,Benin
Bakaga,9.35,2.6167,Benin
Kandi,11.1286,2.9369,Benin
Aplahoue,6.9333,1.6833,Benin
Kalale,10.2953,3.3786,Benin
Malanville,11.8667,3.3833,Benin
Ketou,7.3581,2.6075,Benin
Bohicon,7.2,2.0667,Benin
Djakotome,6.9,1.7167,Benin
Porto-Novo,6.4972,2.605,Benin
Zagnanado,7.2667,2.35,Benin
Bassila,9.0167,1.6667,Benin
Avrankou,6.55,2.6667,Benin
Allada,6.65,2.15,Benin
Misserete,6.5625,2.5853,Benin
Glazoue,7.9736,2.24,Benin
Pobe,6.9667,2.6833,Benin
Djidja,7.3333,1.9333,Benin
Lalo,6.9167,1.8833,Benin
Gogounou,10.8386,2.8361,Benin
Adjaouere,7,2.6167,Benin
Sakete,6.7364,2.6581,Benin
Materi,10.6978,1.0633,Benin
Ifanhim,6.6667,2.7167,Benin
Ndali,9.8608,2.7181,Benin
Dassa-Zoume,7.75,2.1833,Benin
Kouande,10.3317,1.6914,Benin
Bante,8.4167,1.8833,Benin
Lokossa,6.6333,1.7167,Benin
Natitingou,10.3,1.3667,Benin
Tota,6.8,1.7833,Benin
Adjarra,6.5333,2.6667,Benin
Ouidah,6.3667,2.0833,Benin
Sinende,10.3447,2.3792,Benin
Abomey,7.1856,1.9881,Benin
Segbana,10.9278,3.6944,Benin
Toviklin,6.8333,1.8167,Benin
Boukoumbe,10.1833,1.1,Benin
Perere,9.7994,2.9928,Benin
Pehonko,10.2283,2.0019,Benin
So-Awa,6.4667,2.4167,Benin
Ekpe,6.4,2.5333,Benin
Toffo,6.85,2.0833,Benin
Tanguieta,10.6167,1.2667,Benin
Peda-Houeyogbe,6.45,1.9333,Benin
Ouake,9.6617,1.3847,Benin
Zogbodome,7.0833,2.1,Benin
Kopargo,9.8375,1.5481,Benin
Bopa,6.5833,1.9833,Benin
Nikki,9.9333,3.2083,Benin
Karimama,12.0667,3.1833,Benin
Dangbo,6.5,2.6833,Benin
Adjohon,6.7,2.4667,Benin
Ouinhri,7,2.45,Benin
Grand-Popo,6.2833,1.8333,Benin
Athieme,6.5833,1.6667,Benin
Agbangnizoun,7.0667,1.9667,Benin
Tori-Bossito,6.5031,2.145,Benin
Bonou,6.9,2.45,Benin
Cove,7.2333,2.3,Benin
Toukountouna,10.4986,1.3756,Benin
Kerou,10.825,2.1094,Benin
Savalou,7.9333,1.9667,Benin
Come,6.4,1.8833,Benin
Save,8.0333,2.4833,Benin
Bembereke,10.225,2.6681,Benin
Agblangandan,6.3667,2.5167,Benin
Founougo,11.4808,2.5322,Benin
Golo-Djigbe,6.5403,2.3253,Benin
Bouka,10.2167,3.1333,Benin
Paouignan,7.6937,2.2673,Benin
Idigny,7.4833,2.7,Benin
Guene,11.7306,3.2242,Benin
Goumori,11.1833,2.2833,Benin
Azove,6.95,1.7,Benin
Doutou,6.55,1.8833,Benin
Sori,10.7281,2.7825,Benin
Bagou,10.8147,2.7164,Benin
Vakon,6.5167,2.5667,Benin
Kissa,7.0333,1.7833,Benin
Issaba,7.0833,2.6167,Benin
Atchoupa,6.5333,2.6333,Benin
Bouanri,10.2,2.8667,Benin
Togba,7.1,1.6667,Benin
Zinvie,6.6167,2.35,Benin
Biro,9.9,2.9333,Benin
Tohoue,6.3967,2.5853,Benin
Lobogo,6.6333,1.9,Benin
Kolokonde,9.9,1.7667,Benin
Akassato,6.5,2.3667,Benin
Tobre,10.2,2.1333,Benin
Masse,7.1578,2.5436,Benin
Aklanpa,8.1684,2.232,Benin
Azaourisse,6.6944,2.5075,Benin
Tantega,10.85,1.0333,Benin
Tiahounkossi,10.8167,1.0667,Benin
Ina,9.9833,2.7167,Benin
Adjahome,7.0618,1.8368,Benin
Angara-Debou,11.3289,3.0406,Benin
Garou,11.8053,3.4739,Benin
Segou,6.6167,2.2167,Benin
Banigbe,6.9,2.65,Benin
Serarou,9.5833,2.65,Benin
Dassari,10.8158,1.1406,Benin
Toui,8.6833,2.6,Benin
Beterou,9.2,2.2667,Benin
Sakabansi,10.0442,3.3821,Benin
Briniamaro,10.7411,2.0731,Benin
Sinmperekou,11.2333,2.4167,Benin
Onklou,9.5,1.9833,Benin
Dahe,6.5167,1.95,Benin
Pahou,6.3833,2.2167,Benin
Ayomi,6.7833,1.7167,Benin
Adakplame,7.45,2.55,Benin
Meridjonou,6.4619,2.6774,Benin
Gouka,8.1333,1.9667,Benin
Manta,10.3564,1.1056,Benin
Doume,8.0167,1.6333,Benin
Atome-Avegame,7.2333,1.65,Benin
Hevie,6.4167,2.25,Benin
Toura,11.2436,2.3831,Benin
Gouande,10.7828,0.9186,Benin
Gomparou,11.3,2.4489,Benin
Donwari,11.1197,2.8558,Benin
Kouti,6.5542,2.6616,Benin
Birni,9.9892,1.5269,Benin
Siki,10.1833,2.3833,Benin
Kika,9.3,2.2667,Benin
Pira,8.5,1.7333,Benin
Soklogbo,7.6937,2.2673,Benin
Godohou,7.0333,1.7833,Benin
Ouenou,9.787,2.6375,Benin
Katagon,6.6333,2.5833,Benin
Sagon,7.15,2.4167,Benin
Gbanhi,8.4497,2.4737,Benin
Sam,11.0333,2.7333,Benin
Sokouhoue,6.9,1.6667,Benin
Kountouri,10.405,0.9425,Benin
Tori-Cada,6.5833,2.2,Benin
Cousse,6.85,2.1333,Benin
Lissegazoun,6.6167,2.0833,Benin
Gberouboue,10.5333,2.7333,Benin
Peonga,10.3333,3.2667,Benin
Derassi,10.1667,3.2667,Benin
Kaboua,8.25,2.6833,Benin
Agame,6.7333,1.7667,Benin
Guinagourou,9.5667,2.95,Benin
Niemasson,10.3078,2.0378,Benin
Serekali,9.9186,3.0434,Benin
Sanson,9.2833,2.4333,Benin
Gounarou,10.8667,2.85,Benin
Agouna,7.5667,1.7,Benin
Fo-Boure,10.1167,2.4,Benin
Adohoun,6.6333,1.6667,Benin
Kilibo,8.5717,2.6017,Benin
Ouedo-Agueko,6.4963,2.4268,Benin
Yoko,6.7,2.6167,Benin
Lonkly,7.1333,1.6833,Benin
Takon,6.65,2.6167,Benin
Dougba,8.4497,2.4737,Benin
Libante,10.7936,3.5828,Benin
Dan,7.3167,2.0667,Benin
Firou,10.9192,1.9386,Benin
Ahogbeya,7.0333,1.9167,Benin
Ganvie,6.4667,2.4167,Benin
Pabegou,9.8333,1.5492,Benin
Hozin,6.5333,2.55,Benin
Ouedo,6.4833,2.45,Benin
Massi,9.9167,1.4667,Benin
Tomboutou,11.855,3.2892,Benin
Birni Lafia,11.9783,3.2225,Benin
Basso,10.5,3.6833,Benin
Kouarfa,10.4833,1.5167,Benin
Agatogba,6.4,1.9,Benin
Tayakou,10.55,1.2,Benin
Zoudjame,6.8167,1.8667,Benin
Datori,10.4017,0.7828,Benin
Dasso,7.0167,2.4667,Benin
Agoue,6.25,1.6833,Benin
Bougou,9.4333,1.6167,Benin
Sonsoro,11.0875,2.7597,Benin
Dagbe,6.5667,2.6833,Benin
Sokotindji,10.8528,3.4297,Benin
Barei,9.6833,1.5667,Benin
Tasso,9.6737,3.2333,Benin
Lagbe,6.6833,2.6833,Benin
Lanta,7.1,1.8667,Benin
Dodji-Bata,6.6833,2.2833,Benin
Ouedeme,6.7,1.6833,Benin
Adjido,7.0333,1.9833,Benin
Akpassi,8.45,1.8833,Benin
Takouta,10.3,1.2,Benin
Mousoulou,7.3899,1.9367,Benin
Igana,7.0333,2.7,Benin
Ouando,6.5542,2.6616,Benin
Avabodji,6.4533,2.5275,Benin
Adjarra,6.5333,2.2667,Benin
Dekanme,7.1333,1.9667,Benin
Locogahoue,6.8,1.783,Benin
Semere,9.6268,1.4515,Benin
Tanmpegre,10.48,1.45,Benin
Dogbo,6.8167,1.7833,Benin
Hamilton,32.2942,-64.7819,Bermuda
Thimphu,27.4722,89.6361,Bhutan
Phuntsholing,26.85,89.3833,Bhutan
Geylegphug,26.8706,90.4856,Bhutan
Samdrup Jongkhar,26.8,91.505,Bhutan
Wangdue Phodrang,27.4833,89.9,Bhutan
Punakha,27.5833,89.8583,Bhutan
Jakar,27.55,90.7333,Bhutan
Samtse,27.0333,89.0833,Bhutan
Mongar,27.275,91.24,Bhutan
Trashigang,27.3326,91.5528,Bhutan
Trashi Yangtse,27.5833,91.4667,Bhutan
Trongsa,27.4994,90.5047,Bhutan
Paro,27.4333,89.4167,Bhutan
Zhemgang,27.2134,90.655,Bhutan
Daga,27.0667,89.8833,Bhutan
Sarpang,26.8639,90.2674,Bhutan
Pemagatshel,27.0375,91.4039,Bhutan
Tsimasham,27.0989,89.536,Bhutan
Gasa,27.9167,89.6833,Bhutan
Haa,27.3825,89.285,Bhutan
Lhuentse,27.65,91.15,Bhutan
Tsirang,27.0219,90.1229,Bhutan
Santa Cruz de la Sierra,-17.7892,-63.1975,Bolivia
El Alto,-16.5047,-68.1633,Bolivia
Cochabamba,-17.3883,-66.1597,Bolivia
Oruro,-17.9667,-67.1167,Bolivia
La Paz,-16.4958,-68.1333,Bolivia
Sucre,-19.0475,-65.26,Bolivia
Tarija,-21.5333,-64.7333,Bolivia
Potosi,-19.5892,-65.7533,Bolivia
Oruro,-17.9799,-67.13,Bolivia
Warnes,-17.5167,-63.1667,Bolivia
Sacaba,-17.4042,-66.0408,Bolivia
Montero,-17.3422,-63.2558,Bolivia
Quillacollo,-17.4,-66.2833,Bolivia
Trinidad,-14.8292,-64.9014,Bolivia
Riberalta,-11.0128,-66.0572,Bolivia
Yacuiba,-22.0153,-63.6772,Bolivia
Villa Tunari,-16.9747,-65.4203,Bolivia
Colcapirhua,-17.4167,-66.25,Bolivia
Puerto Villarroel,-16.8667,-64.7831,Bolivia
Cobija,-11.0333,-68.7333,Bolivia
Sipe Sipe,-17.45,-66.3833,Bolivia
Villamontes,-21.2608,-63.4761,Bolivia
Guayaramerin,-10.8,-65.3833,Bolivia
Camiri,-20.1,-63.5333,Bolivia
Camiri,-20.0968,-63.5217,Bolivia
Tiquipaya,-17.3333,-66.2167,Bolivia
Viacha,-16.6533,-68.3017,Bolivia
Bermejo,-22.7322,-64.3425,Bolivia
Ivirgarzama,-17.0333,-64.85,Bolivia
Villazon,-22.0911,-65.5961,Bolivia
Uyuni,-20.4628,-66.8239,Bolivia
Mizque,-17.9333,-65.3167,Bolivia
Cotoca,-17.7536,-62.9967,Bolivia
Yapacani,-17.4017,-63.9098,Bolivia
San Borja,-14.8583,-66.7475,Bolivia
Independencia,-16.5,-66.5833,Bolivia
San Ignacio de Velasco,-16.3667,-60.95,Bolivia
Tupiza,-21.4375,-65.7158,Bolivia
Patacamaya,-17.2333,-67.9167,Bolivia
Caranavi,-15.8333,-67.5667,Bolivia
Chimore,-16.9833,-65.1333,Bolivia
San Julian,-16.9064,-62.6169,Bolivia
Ravelo,-18.7833,-65.55,Bolivia
Huanuni,-18.29,-66.8383,Bolivia
Llallagua,-18.4167,-66.5833,Bolivia
Capinota,-17.715,-66.2636,Bolivia
Rurrenabaque,-14.4422,-67.5283,Bolivia
Ascencion de Guarayos,-15.8922,-63.1881,Bolivia
Achocalla,-16.5833,-68.1667,Bolivia
Mineros,-17.1178,-63.2331,Bolivia
San Jose de Chiquitos,-17.85,-60.75,Bolivia
Vallegrande,-18.4833,-64.1,Bolivia
Mapiri,-15.3097,-68.2161,Bolivia
Portachuelo,-17.3572,-63.3906,Bolivia
Comarapa,-17.9158,-64.53,Bolivia
Punata,-17.55,-65.8333,Bolivia
Villa Yapacani,-17.4028,-63.885,Bolivia
Ascension,-15.6996,-63.08,Bolivia
Vinto,-17.3833,-66.3,Bolivia
San Benito,-17.5167,-65.9167,Bolivia
Chulumani,-16.6833,-67.8667,Bolivia
Santa Ana de Yacuma,-13.7444,-65.4269,Bolivia
Challapata,-18.9,-66.7667,Bolivia
Puerto Suarez,-18.9667,-57.7981,Bolivia
Corocoro,-17.1667,-68.45,Bolivia
Torotoro,-18.1342,-65.7633,Bolivia
Okinawa Numero Uno,-17.2189,-62.8953,Bolivia
Puerto Quijarro,-17.7796,-57.77,Bolivia
Robore,-18.3333,-59.75,Bolivia
San Ignacio de Moxo,-14.9961,-65.64,Bolivia
Puerto America,-11.55,-68.0667,Bolivia
Pailon,-17.6594,-62.7197,Bolivia
Achacachi,-16.0444,-68.685,Bolivia
Reyes,-14.2958,-67.3353,Bolivia
Aiquile,-18.1667,-65.1667,Bolivia
Charagua,-19.7906,-63.1978,Bolivia
Cliza,-17.6,-65.9333,Bolivia
San Carlos,-17.4044,-63.7325,Bolivia
San Javier,-16.2748,-62.5072,Bolivia
Uncia,-18.4681,-66.5647,Bolivia
San Ramon,-13.2672,-64.6172,Bolivia
San Matias,-16.3611,-58.4053,Bolivia
Betanzos,-19.5533,-65.4536,Bolivia
Camargo,-20.6403,-65.2103,Bolivia
Samaipata,-18.1794,-63.8756,Bolivia
Magdalena,-13.2606,-64.0528,Bolivia
Sicasica,-17.3333,-67.7333,Bolivia
Padilla,-19.3,-64.3,Bolivia
San Lorenzo,-21.4167,-64.7494,Bolivia
Entre Rios,-21.5264,-64.1733,Bolivia
Tarabuco,-19.1667,-64.9167,Bolivia
Quime,-16.9817,-67.2167,Bolivia
Coroico,-16.1833,-67.7333,Bolivia
Sorata,-15.7733,-68.6481,Bolivia
Baures,-13.6556,-63.6958,Bolivia
Apolo,-14.72,-68.5039,Bolivia
Cuevo,-20.45,-63.5167,Bolivia
Villa Martin Colchak,-20.7406,-67.6606,Bolivia
Puerto Acosta,-15.5333,-69.25,Bolivia
Charana,-17.5919,-69.4456,Bolivia
Sabaya,-19.0147,-68.3708,Bolivia
Llica,-19.85,-68.25,Bolivia
Piso Firme,-13.683,-61.8666,Bolivia
Puerto Heath,-12.5022,-68.65,Bolivia
San Rafael,-16.7795,-60.6799,Bolivia
Kralendijk,12.1444,-68.2656,"Bonaire, Sint Eustatius, and Saba"
Oranjestad,17.4833,-62.9833,"Bonaire, Sint Eustatius, and Saba"
The Bottom,17.6261,-63.2492,"Bonaire, Sint Eustatius, and Saba"
Sarajevo,43.8564,18.4131,Bosnia and Herzegovina
Banja Luka,44.7725,17.1925,Bosnia and Herzegovina
Bijeljina,44.7567,19.2156,Bosnia and Herzegovina
Tuzla,44.5384,18.6671,Bosnia and Herzegovina
Mostar,43.3436,17.8075,Bosnia and Herzegovina
Prijedor,44.9808,16.7133,Bosnia and Herzegovina
Zenica,44.2017,17.9039,Bosnia and Herzegovina
Doboj,44.7333,18.1333,Bosnia and Herzegovina
Ilidza,43.8331,18.3039,Bosnia and Herzegovina
Cazin,44.9667,15.9333,Bosnia and Herzegovina
Zvornik,44.3833,19.1,Bosnia and Herzegovina
Zivinice,44.4493,18.6498,Bosnia and Herzegovina
Bihac,44.8147,15.8692,Bosnia and Herzegovina
Travnik,44.2264,17.6597,Bosnia and Herzegovina
Lukavac,44.5333,18.5333,Bosnia and Herzegovina
Gracanica,44.7031,18.3101,Bosnia and Herzegovina
Tesanj,44.6119,17.9855,Bosnia and Herzegovina
Visoko,43.9894,18.1806,Bosnia and Herzegovina
Brcko,44.8783,18.8092,Bosnia and Herzegovina
Srebrenik,44.7082,18.4883,Bosnia and Herzegovina
Gradacac,44.8785,18.4276,Bosnia and Herzegovina
Donji Kakanj,44.1311,18.0972,Bosnia and Herzegovina
Stara Gora,43.7538,18.3689,Bosnia and Herzegovina
Bugojno,44.05,17.45,Bosnia and Herzegovina
Maglaj,44.5478,18.1,Bosnia and Herzegovina
Zepce,44.4333,18.0333,Bosnia and Herzegovina
Trebinje,42.7089,18.3217,Bosnia and Herzegovina
Siroki Brijeg,43.3667,17.5833,Bosnia and Herzegovina
Ljubuski,43.1981,17.5467,Bosnia and Herzegovina
Capljina,43.11,17.7,Bosnia and Herzegovina
Vogosca,43.9,18.35,Bosnia and Herzegovina
Vitez,44.1585,17.7885,Bosnia and Herzegovina
Novi Travnik,44.1748,17.6634,Bosnia and Herzegovina
Hadzici,43.8236,18.2211,Bosnia and Herzegovina
Gornji Vakuf,43.9333,17.5833,Bosnia and Herzegovina
Pale,43.8167,18.5667,Bosnia and Herzegovina
Kiseljak,43.95,18.0833,Bosnia and Herzegovina
Posusje,43.4722,17.3267,Bosnia and Herzegovina
Bratunac,44.1839,19.3308,Bosnia and Herzegovina
Orasje,45.0336,18.6933,Bosnia and Herzegovina
Ilijas,43.9583,18.2667,Bosnia and Herzegovina
Odzak,45.0246,18.3211,Bosnia and Herzegovina
Kljuc,44.5333,16.7667,Bosnia and Herzegovina
Busovaca,44.0978,17.8783,Bosnia and Herzegovina
Citluk,43.2286,17.7008,Bosnia and Herzegovina
Banovici,44.4089,18.5287,Bosnia and Herzegovina
Sanski Most,44.7667,16.6667,Bosnia and Herzegovina
Brod,45.1333,17.9833,Bosnia and Herzegovina
Lopare,44.635,18.8433,Bosnia and Herzegovina
Stolac,43.0839,17.9592,Bosnia and Herzegovina
Breza,44.021,18.261,Bosnia and Herzegovina
Donji Vakuf,44.15,17.4,Bosnia and Herzegovina
Srebrenica,44.1,19.3,Bosnia and Herzegovina
Derventa,44.98,17.91,Bosnia and Herzegovina
Gorazde,43.6667,18.9778,Bosnia and Herzegovina
Fojnica,43.9595,17.9029,Bosnia and Herzegovina
Kladanj,44.2267,18.6927,Bosnia and Herzegovina
Foca,43.5,18.7833,Bosnia and Herzegovina
Sapna,44.4917,19.0028,Bosnia and Herzegovina
Jajce,44.3417,17.2694,Bosnia and Herzegovina
Vlasenica,44.1833,18.9333,Bosnia and Herzegovina
Milici,44.1703,19.0919,Bosnia and Herzegovina
Gradiska,45.1458,17.2539,Bosnia and Herzegovina
Bileca,42.8667,18.4333,Bosnia and Herzegovina
Rogatica,43.7989,19.0036,Bosnia and Herzegovina
Jablanica,43.662,17.7618,Bosnia and Herzegovina
Celic,44.7211,18.8203,Bosnia and Herzegovina
Bosanska Krupa,44.8833,16.15,Bosnia and Herzegovina
Olovo,44.1277,18.5807,Bosnia and Herzegovina
Novi Grad,45.0481,16.3769,Bosnia and Herzegovina
Vares,44.1644,18.3283,Bosnia and Herzegovina
Livno,43.8269,17.0081,Bosnia and Herzegovina
Gacko,43.1667,18.5333,Bosnia and Herzegovina
Gaborone,-24.6569,25.9086,Botswana
Francistown,-21.1736,27.5125,Botswana
Molepolole,-24.4066,25.4951,Botswana
Mogoditshane,-24.6333,25.8667,Botswana
Maun,-19.9833,23.4167,Botswana
Selibe Phikwe,-21.9667,27.9167,Botswana
Kanye,-24.9833,25.35,Botswana
Serowe,-22.3833,26.7167,Botswana
Mochudi,-24.4167,26.15,Botswana
Mahalapye,-23.1041,26.8142,Botswana
Palapye,-22.55,27.1333,Botswana
Tlokweng,-24.6686,25.9711,Botswana
Ramotswa,-24.8667,25.8167,Botswana
Lobatse,-25.2167,25.6667,Botswana
Ghanzi,-21.7,21.65,Botswana
Bobonong,-21.9655,28.4363,Botswana
Letlhakane,-21.425,25.5892,Botswana
Mosopa,-24.7792,25.4183,Botswana
Thamaga,-24.7167,25.5333,Botswana
Jwaneng,-24.6017,24.7281,Botswana
Gabane,-24.6667,25.7822,Botswana
Mmopone,-24.5669,25.8733,Botswana
Mmadinare,-21.8765,27.7518,Botswana
Kopong,-24.4686,25.8922,Botswana
Kasane,-17.7983,25.1536,Botswana
Tshabong,-26.02,22.4056,Botswana
Shoshong,-23.0333,26.5167,Botswana
